lat,lon,address,city
49.28035833333333,-122.92016035551205,"{'amenity': 'West Mall Complex', 'road': 'University Drive West', 'city': 'Burnaby', 'county': 'Metro Vancouver Regional District', 'state': 'British Columbia', 'postcode': 'V5A 4X6', 'country': 'Canada', 'country_code': 'ca'}",Burnaby
49.27681265432098,-122.9234759513638,"{'amenity': 'Simon Fraser University', 'road': 'Tower Road', 'city': 'Burnaby', 'county': 'Metro Vancouver Regional District', 'state': 'British Columbia', 'postcode': 'V5A 4Y0', 'country': 'Canada', 'country_code': 'ca'}",Burnaby
49.27326697530864,-122.92522296827521,"{'road': 'Gaglardi Way', 'city': 'Burnaby', 'county': 'Metro Vancouver Regional District', 'state': 'British Columbia', 'postcode': 'V5A 4W2', 'country': 'Canada', 'country_code': 'ca'}",Burnaby
49.269721296296304,-122.92540174414171,"{'road': 'Gaglardi Way', 'city': 'Burnaby', 'county': 'Metro Vancouver Regional District', 'state': 'British Columbia', 'postcode': 'V5A 0C2', 'country': 'Canada', 'country_code': 'ca'}",Burnaby
49.266175617283956,-122.9240126167424,"{'leisure': 'Field 2000', 'road': 'Forest Grove Drive', 'city': 'Burnaby', 'county': 'Metro Vancouver Regional District', 'state': 'British Columbia', 'postcode': 'V5A 4W2', 'country': 'Canada', 'country_code': 'ca'}",Burnaby
49.26262993827161,-122.92105592403095,"{'road': 'Hillside Place', 'city': 'Burnaby', 'county': 'Metro Vancouver Regional District', 'state': 'British Columbia', 'postcode': 'V5A 4W2', 'country': 'Canada', 'country_code': 'ca'}",Burnaby
49.25908425925926,-122.9165320037282,"{'road': 'Baxter Place', 'city': 'Burnaby', 'county': 'Metro Vancouver Regional District', 'state': 'British Columbia', 'postcode': 'V5A 0C2', 'country': 'Canada', 'country_code': 'ca'}",Burnaby
49.255538580246906,-122.91044119361322,"{'amenity': 'Burnaby Mountain Secondary School', 'road': 'Gaglardi Way', 'city': 'Burnaby', 'county': 'Metro Vancouver Regional District', 'state': 'British Columbia', 'postcode': 'V3J 7X5', 'country': 'Canada', 'country_code': 'ca'}",Burnaby
49.25199290123457,-122.9027838316397,"{'road': 'Salish Court', 'neighbourhood': 'Sullivan Heights', 'city': 'Burnaby', 'county': 'Metro Vancouver Regional District', 'state': 'British Columbia', 'postcode': 'V3J 1M7', 'country': 'Canada', 'country_code': 'ca'}",Burnaby
