address,amenity,city,lat,lon,name,tags,timestamp
"{'shop': 'General Store', 'road': 'Bowen Island Trunk Road', 'city': 'Bowen Island Municipality', 'county': 'Metro Vancouver Regional District', 'state': 'British Columbia', 'postcode': 'V0N 1G0', 'country': 'Canada', 'country_code': 'ca'}",atm,Bowen Island Municipality,49.3795439,-123.3374131,,{'operator': 'NSCU'},2017-10-14T17:25:25.000-07:00
"{'amenity': 'Bowen Island Recycling Depot', 'road': 'Mt Gardner Road', 'city': 'Bowen Island Municipality', 'county': 'Metro Vancouver Regional District', 'state': 'British Columbia', 'postcode': 'V0N 1G0', 'country': 'Canada', 'country_code': 'ca'}",recycling,Bowen Island Municipality,49.3833411,-123.3507453,Bowen Island Recycling Depot,{'recycling_type': 'centre'},2019-11-16T15:56:12.000-08:00
"{'amenity': 'Snug Cove', 'road': 'Bowen Island Trunk Road', 'city': 'Bowen Island Municipality', 'county': 'Metro Vancouver Regional District', 'state': 'British Columbia', 'postcode': 'V0N 1G0', 'country': 'Canada', 'country_code': 'ca'}",ferry_terminal,Bowen Island Municipality,49.3794889,-123.3313409,Snug Cove,"{'website': 'http://www.bcferries.com', 'phone': '+1-888-223-3779', 'ferry': 'yes', 'public_transport': 'stop_position', 'operator': 'BC Ferries', 'network': 'BC Ferries'}",2020-03-25T06:12:47.000-07:00
"{'leisure': 'Union Steamship Company Marina', 'road': 'Bowen Island Trunk Road', 'city': 'Bowen Island Municipality', 'county': 'Metro Vancouver Regional District', 'state': 'British Columbia', 'postcode': 'V0N 1G0', 'country': 'Canada', 'country_code': 'ca'}",telephone,Bowen Island Municipality,49.37934179999999,-123.33379850000001,,"{'operator': 'Telus', 'fee': 'yes'}",2020-05-21T08:02:14.000-07:00
"{'road': 'Artisan Lane', 'city': 'Bowen Island Municipality', 'county': 'Metro Vancouver Regional District', 'state': 'British Columbia', 'postcode': 'V0N 1G0', 'country': 'Canada', 'country_code': 'ca'}",telephone,Bowen Island Municipality,49.38030300000001,-123.3453844,,"{'operator': 'Telus', 'fee': 'yes'}",2020-05-21T08:02:14.000-07:00
"{'amenity': 'Bowen Island Gas Station', 'house_number': '1062', 'road': 'Mt Gardner Road', 'city': 'Bowen Island Municipality', 'county': 'Metro Vancouver Regional District', 'state': 'British Columbia', 'postcode': 'V0N 1G0', 'country': 'Canada', 'country_code': 'ca'}",fuel,Bowen Island Municipality,49.382261,-123.351445,Bowen Island Gas Station,"{'addr:housenumber': '1062', 'addr:street': 'Mt Gardner Road', 'addr:postcode': 'V0N 1G0', 'addr:city': 'Bowen Island'}",2018-02-01T13:20:51.000-08:00
"{'road': 'Killarney Creek Shared-Trail', 'city': 'Bowen Island Municipality', 'county': 'Metro Vancouver Regional District', 'state': 'British Columbia', 'postcode': 'V0N 1G0', 'country': 'Canada', 'country_code': 'ca'}",parking,Bowen Island Municipality,49.3853645,-123.3398662,,{},2013-12-30T09:58:03.000-08:00
"{'road': 'Dorman Road', 'city': 'Bowen Island Municipality', 'county': 'Metro Vancouver Regional District', 'state': 'British Columbia', 'postcode': 'V0N 1G0', 'country': 'Canada', 'country_code': 'ca'}",parking,Bowen Island Municipality,49.3779125,-123.3382092,,{'access': 'permissive'},2018-10-29T03:27:12.000-07:00
"{'road': 'Lighthouse Lane', 'city': 'Bowen Island Municipality', 'county': 'Metro Vancouver Regional District', 'state': 'British Columbia', 'postcode': 'V0N 1G2', 'country': 'Canada', 'country_code': 'ca'}",parking,Bowen Island Municipality,49.340211,-123.430826,,{},2015-06-08T02:16:36.000-07:00
"{'road': 'Roger Curtis Lane', 'city': 'Bowen Island Municipality', 'county': 'Metro Vancouver Regional District', 'state': 'British Columbia', 'postcode': 'V0N 1G2', 'country': 'Canada', 'country_code': 'ca'}",parking,Bowen Island Municipality,49.343211,-123.428028,,{},2015-06-08T02:16:36.000-07:00
"{'road': 'Collingwood Lane', 'city': 'Bowen Island Municipality', 'county': 'Metro Vancouver Regional District', 'state': 'British Columbia', 'postcode': 'V0N 1G2', 'country': 'Canada', 'country_code': 'ca'}",parking,Bowen Island Municipality,49.346872999999995,-123.42828600000001,,{},2017-11-29T21:55:55.000-08:00
"{'road': 'Mt Gardner Road', 'city': 'Bowen Island Municipality', 'county': 'Metro Vancouver Regional District', 'state': 'British Columbia', 'postcode': 'V0N 1G0', 'country': 'Canada', 'country_code': 'ca'}",parking,Bowen Island Municipality,49.3880702,-123.3548547,,{},2017-03-04T19:53:52.000-08:00
"{'amenity': 'Bowen Island Pub', 'road': 'Dorman Road', 'city': 'Bowen Island Municipality', 'county': 'Metro Vancouver Regional District', 'state': 'British Columbia', 'postcode': 'V0N 1G0', 'country': 'Canada', 'country_code': 'ca'}",pub,Bowen Island Municipality,49.37942520000001,-123.3377721,Bowen Island Pub,{},2018-08-12T17:53:52.000-07:00
"{'amenity': 'First Credit Union', 'road': 'Dorman Road', 'city': 'Bowen Island Municipality', 'county': 'Metro Vancouver Regional District', 'state': 'British Columbia', 'postcode': 'V0N 1G0', 'country': 'Canada', 'country_code': 'ca'}",bank,Bowen Island Municipality,49.379482,-123.33812820000001,First Credit Union,{},2017-10-14T17:25:25.000-07:00
"{'road': 'Howe Road', 'city': 'Bowen Island Municipality', 'county': 'Metro Vancouver Regional District', 'state': 'British Columbia', 'postcode': 'V0N 1G0', 'country': 'Canada', 'country_code': 'ca'}",bicycle_parking,Bowen Island Municipality,49.41586160000001,-123.32012160000001,,{},2019-12-13T13:01:59.000-08:00
"{'road': 'Miller Road', 'city': 'Bowen Island Municipality', 'county': 'Metro Vancouver Regional District', 'state': 'British Columbia', 'postcode': 'V0N 1G0', 'country': 'Canada', 'country_code': 'ca'}",post_box,Bowen Island Municipality,49.3893587,-123.32956159999999,,{},2019-12-11T19:17:32.000-08:00
"{'amenity': 'Bowen Island', 'house_number': '944', 'road': 'Dorman Road', 'city': 'Bowen Island Municipality', 'county': 'Metro Vancouver Regional District', 'state': 'British Columbia', 'postcode': 'V0N 1G0', 'country': 'Canada', 'country_code': 'ca'}",post_box,Bowen Island Municipality,49.3791986,-123.33854469999999,,"{'collection_times': '15:15 Mon-Fri 12:00 Sat', 'drive_through': 'no', 'operator': 'Canada Post'}",2020-05-21T07:57:45.000-07:00
"{'road': 'Miller Road', 'city': 'Bowen Island Municipality', 'county': 'Metro Vancouver Regional District', 'state': 'British Columbia', 'postcode': 'V0N 1G0', 'country': 'Canada', 'country_code': 'ca'}",post_box,Bowen Island Municipality,49.3886545,-123.3253943,,{},2019-12-11T19:17:32.000-08:00
"{'road': 'Creek Road', 'city': 'Bowen Island Municipality', 'county': 'Metro Vancouver Regional District', 'state': 'British Columbia', 'postcode': 'V0N 1G0', 'country': 'Canada', 'country_code': 'ca'}",post_box,Bowen Island Municipality,49.394694,-123.3261908,,{},2019-12-11T19:17:32.000-08:00
"{'road': 'Finisterre Road', 'city': 'Bowen Island Municipality', 'county': 'Metro Vancouver Regional District', 'state': 'British Columbia', 'postcode': 'V0N 1G0', 'country': 'Canada', 'country_code': 'ca'}",post_box,Bowen Island Municipality,49.416732399999994,-123.3165471,,{},2019-12-11T19:17:32.000-08:00
"{'road': 'Old Eagle Cliff Road', 'city': 'Bowen Island Municipality', 'county': 'Metro Vancouver Regional District', 'state': 'British Columbia', 'postcode': 'V0N 1G0', 'country': 'Canada', 'country_code': 'ca'}",post_box,Bowen Island Municipality,49.4061089,-123.3120344,,{},2019-12-11T19:17:32.000-08:00
"{'amenity': 'Bowen Island RCMP', 'house_number': '1017', 'road': 'Miller Road', 'city': 'Bowen Island Municipality', 'county': 'Metro Vancouver Regional District', 'state': 'British Columbia', 'postcode': 'V0N 1G0', 'country': 'Canada', 'country_code': 'ca'}",post_box,Bowen Island Municipality,49.3805666,-123.338355,,{},2020-01-21T18:51:49.000-08:00
"{'road': 'Eaglecliff Road', 'city': 'Bowen Island Municipality', 'county': 'Metro Vancouver Regional District', 'state': 'British Columbia', 'postcode': 'V0N 1G0', 'country': 'Canada', 'country_code': 'ca'}",post_box,Bowen Island Municipality,49.4015079,-123.3181967,,{},2019-12-11T19:24:24.000-08:00
"{'shop': 'Bowen Building Centre', 'road': 'Grafton Road', 'city': 'Bowen Island Municipality', 'county': 'Metro Vancouver Regional District', 'state': 'British Columbia', 'postcode': 'V0N 1G2', 'country': 'Canada', 'country_code': 'ca'}",post_box,Bowen Island Municipality,49.366727000000004,-123.37586740000002,,{},2019-12-11T19:56:14.000-08:00
"{'road': 'Adams Road', 'city': 'Bowen Island Municipality', 'county': 'Metro Vancouver Regional District', 'state': 'British Columbia', 'postcode': 'V0N 1G2', 'country': 'Canada', 'country_code': 'ca'}",post_box,Bowen Island Municipality,49.3607012,-123.3922781,,{},2019-12-11T20:10:36.000-08:00
"{'road': 'Harbour View Place', 'city': 'Bowen Island Municipality', 'county': 'Metro Vancouver Regional District', 'state': 'British Columbia', 'postcode': 'V0N 1G0', 'country': 'Canada', 'country_code': 'ca'}",post_box,Bowen Island Municipality,49.3775861,-123.34100829999998,,{},2017-05-06T19:52:56.000-07:00
"{'road': 'Cliff Road', 'city': 'Bowen Island Municipality', 'county': 'Metro Vancouver Regional District', 'state': 'British Columbia', 'postcode': 'V0N 1G0', 'country': 'Canada', 'country_code': 'ca'}",post_box,Bowen Island Municipality,49.3637179,-123.33637859999999,,{},2017-05-06T19:52:56.000-07:00
"{'house_number': '485', 'road': 'Dorman Road', 'city': 'Bowen Island Municipality', 'county': 'Metro Vancouver Regional District', 'state': 'British Columbia', 'postcode': 'V0N 1G0', 'country': 'Canada', 'country_code': 'ca'}",post_box,Bowen Island Municipality,49.3765928,-123.3381618,,{},2018-11-28T17:47:32.000-08:00
"{'road': 'Village Drive', 'city': 'Bowen Island Municipality', 'county': 'Metro Vancouver Regional District', 'state': 'British Columbia', 'postcode': 'V0N 1G0', 'country': 'Canada', 'country_code': 'ca'}",post_box,Bowen Island Municipality,49.3765594,-123.34030870000001,,{},2016-12-04T00:29:37.000-08:00
"{'amenity': 'St. Gerard Mission', 'house_number': '1111', 'road': 'Miller Road', 'city': 'Bowen Island Municipality', 'county': 'Metro Vancouver Regional District', 'state': 'British Columbia', 'postcode': 'V0N 1G0', 'country': 'Canada', 'country_code': 'ca'}",post_box,Bowen Island Municipality,49.385630600000006,-123.3389848,,{},2019-12-13T12:56:46.000-08:00
"{'road': 'Artisan Lane', 'city': 'Bowen Island Municipality', 'county': 'Metro Vancouver Regional District', 'state': 'British Columbia', 'postcode': 'V0N 1G0', 'country': 'Canada', 'country_code': 'ca'}",post_box,Bowen Island Municipality,49.380202399999995,-123.34925929999999,,{},2016-12-04T00:29:37.000-08:00
"{'road': 'Carter Road', 'city': 'Bowen Island Municipality', 'county': 'Metro Vancouver Regional District', 'state': 'British Columbia', 'postcode': 'V0N 1G0', 'country': 'Canada', 'country_code': 'ca'}",post_box,Bowen Island Municipality,49.3824939,-123.351638,,{},2019-12-11T19:31:48.000-08:00
"{'road': 'Captain Cates Walk', 'city': 'Bowen Island Municipality', 'county': 'Metro Vancouver Regional District', 'state': 'British Columbia', 'postcode': 'V0N 1G0', 'country': 'Canada', 'country_code': 'ca'}",post_box,Bowen Island Municipality,49.3776345,-123.3398801,,{},2017-11-11T07:05:51.000-08:00
"{'amenity': 'Bowen Island', 'house_number': '944', 'road': 'Dorman Road', 'city': 'Bowen Island Municipality', 'county': 'Metro Vancouver Regional District', 'state': 'British Columbia', 'postcode': 'V0N 1G0', 'country': 'Canada', 'country_code': 'ca'}",post_office,Bowen Island Municipality,49.3792001,-123.33862309999999,Bowen Island,"{'brand:wikidata': 'Q1032001', 'addr:housenumber': '944', 'brand:wikipedia': 'en:Canada Post', 'opening_hours': 'Mo-Fr 08:30-17:00 Sat 9:30-12:30', 'addr:street': 'Dorman Road', 'addr:postcode': 'V0N 1G0', 'brand': 'Canada Post', 'addr:unit': '209', 'operator': 'Canada Post'}",2020-03-21T00:44:03.000-07:00
"{'road': 'Killarney Creek Shared-Trail', 'city': 'Bowen Island Municipality', 'county': 'Metro Vancouver Regional District', 'state': 'British Columbia', 'postcode': 'V0N 1G0', 'country': 'Canada', 'country_code': 'ca'}",toilets,Bowen Island Municipality,49.385355,-123.3399541,,"{'unisex': 'yes', 'toilets:disposal': 'chemical', 'operator': 'Metro Vancouver Parks'}",2020-03-11T18:02:32.000-07:00
"{'road': 'Dorman Point Trail', 'city': 'Bowen Island Municipality', 'county': 'Metro Vancouver Regional District', 'state': 'British Columbia', 'postcode': 'V0N 1G0', 'country': 'Canada', 'country_code': 'ca'}",toilets,Bowen Island Municipality,49.377296,-123.33508359999999,,"{'unisex': 'yes', 'toilets:disposal': 'chemical', 'operator': 'Metro Vancouver Parks'}",2018-11-27T17:37:52.000-08:00
"{'road': 'Killarney Creek Trail', 'city': 'Bowen Island Municipality', 'county': 'Metro Vancouver Regional District', 'state': 'British Columbia', 'postcode': 'V0N 1G0', 'country': 'Canada', 'country_code': 'ca'}",toilets,Bowen Island Municipality,49.38812460000001,-123.35468259999999,,"{'unisex': 'yes', 'toilets:disposal': 'chemical', 'operator': 'Metro Vancouver Parks'}",2018-11-26T18:41:27.000-08:00
"{'shop': 'USSC Store', 'road': 'Bowen Island Trunk Road', 'city': 'Bowen Island Municipality', 'county': 'Metro Vancouver Regional District', 'state': 'British Columbia', 'postcode': 'V0N 1G0', 'country': 'Canada', 'country_code': 'ca'}",waste_basket,Bowen Island Municipality,49.3795777,-123.3339068,,{},2019-12-13T12:52:58.000-08:00
"{'amenity': 'Espresso Hut', 'road': 'Bowen Island Trunk Road', 'city': 'Bowen Island Municipality', 'county': 'Metro Vancouver Regional District', 'state': 'British Columbia', 'postcode': 'V0N 1G0', 'country': 'Canada', 'country_code': 'ca'}",cafe,Bowen Island Municipality,49.3795281,-123.3325118,Espresso Hut,"{'cuisine': 'coffee_shop', 'outdoor_seating': 'yes'}",2019-12-13T12:32:51.000-08:00
"{'amenity': 'The Snug Cafe', 'road': 'Bowen Island Trunk Road', 'city': 'Bowen Island Municipality', 'county': 'Metro Vancouver Regional District', 'state': 'British Columbia', 'postcode': 'V0N 1G0', 'country': 'Canada', 'country_code': 'ca'}",cafe,Bowen Island Municipality,49.3794956,-123.33497659999998,The Snug Cafe,{'website': 'http://www.snugcafe.ca/'},2013-12-30T10:13:18.000-08:00
"{'amenity': 'Village Baker', 'road': 'Dorman Road', 'city': 'Bowen Island Municipality', 'county': 'Metro Vancouver Regional District', 'state': 'British Columbia', 'postcode': 'V0N 1G0', 'country': 'Canada', 'country_code': 'ca'}",cafe,Bowen Island Municipality,49.37876170000001,-123.3381558,Village Baker,{},2019-12-11T19:17:32.000-08:00
"{'amenity': 'The Ruddy Cafe', 'road': 'Bowen Island Trunk Road', 'city': 'Bowen Island Municipality', 'county': 'Metro Vancouver Regional District', 'state': 'British Columbia', 'postcode': 'V0N 1G0', 'country': 'Canada', 'country_code': 'ca'}",cafe,Bowen Island Municipality,49.3793956,-123.33828929999999,The Ruddy Cafe,{},2019-12-11T18:41:30.000-08:00
"{'amenity': 'Bowen Sushi', 'road': 'Bowen Island Trunk Road', 'city': 'Bowen Island Municipality', 'county': 'Metro Vancouver Regional District', 'state': 'British Columbia', 'postcode': 'V0N 1G0', 'country': 'Canada', 'country_code': 'ca'}",restaurant,Bowen Island Municipality,49.3791266,-123.33862509999999,Bowen Sushi,{'cuisine': 'sushi'},2019-12-11T19:17:32.000-08:00
"{'amenity': 'Barcelona Tapas Bar', 'house_number': '449', 'road': 'Bowen Island Trunk Road', 'city': 'Bowen Island Municipality', 'county': 'Metro Vancouver Regional District', 'state': 'British Columbia', 'postcode': 'V0N 1G0', 'country': 'Canada', 'country_code': 'ca'}",restaurant,Bowen Island Municipality,49.379619500000004,-123.3353544,Barcelona Tapas Bar,"{'addr:housenumber': '449', 'addr:street': 'Trunk Road', 'addr:postcode': 'V0N 1G0', 'operator': 'regional', 'addr:city': 'Bowen Island'}",2018-02-12T04:09:37.000-08:00
"{'amenity': 'Tuscany Pizza', 'road': 'Bowen Island Trunk Road', 'city': 'Bowen Island Municipality', 'county': 'Metro Vancouver Regional District', 'state': 'British Columbia', 'postcode': 'V0N 1G0', 'country': 'Canada', 'country_code': 'ca'}",restaurant,Bowen Island Municipality,49.3795627,-123.3355132,Tuscany Pizza,{},2017-10-15T05:07:10.000-07:00
"{'amenity': 'Rustique Bistro', 'road': 'Bowen Island Trunk Road', 'city': 'Bowen Island Municipality', 'county': 'Metro Vancouver Regional District', 'state': 'British Columbia', 'postcode': 'V0N 1G0', 'country': 'Canada', 'country_code': 'ca'}",restaurant,Bowen Island Municipality,49.379554,-123.3342429,Rustique Bistro,{},2019-12-13T12:50:44.000-08:00
