address,amenity,city,lat,lon,name,tags,timestamp
"{'house_number': '6911', 'road': 'Southpoint Drive', 'neighbourhood': 'Stride Avenue', 'city': 'Burnaby', 'county': 'Metro Vancouver Regional District', 'state': 'British Columbia', 'postcode': 'V3N 4X8', 'country': 'Canada', 'country_code': 'ca'}",atm,Burnaby,49.211023,-122.95731200000002,,{'operator': 'G&F Financial Group'},2010-11-27T22:36:19.000-08:00
"{'house_number': '4700', 'road': 'Kingsway', 'neighbourhood': 'Metrotown', 'city': 'Burnaby', 'county': 'Metro Vancouver Regional District', 'state': 'British Columbia', 'postcode': 'V5H 2C3', 'country': 'Canada', 'country_code': 'ca'}",atm,Burnaby,49.225570399999995,-122.99949440000002,,"{'description': 'Inside Shoppers Drug Mart', 'operator': 'PC Financial'}",2019-02-03T01:58:48.000-08:00
"{'house_number': '4700', 'road': 'Kingsway', 'neighbourhood': 'Metrotown', 'city': 'Burnaby', 'county': 'Metro Vancouver Regional District', 'state': 'British Columbia', 'postcode': 'V5H 2C3', 'country': 'Canada', 'country_code': 'ca'}",atm,Burnaby,49.2253282,-122.9992467,,{'operator': 'CIBC'},2019-02-03T01:58:47.000-08:00
"{'shop': 'Lougheed Town Centre', 'road': 'Truck Loading Zone', 'neighbourhood': 'Sullivan Heights', 'city': 'Burnaby', 'county': 'Metro Vancouver Regional District', 'state': 'British Columbia', 'postcode': 'V3J 1N0', 'country': 'Canada', 'country_code': 'ca'}",atm,Burnaby,49.250189299999995,-122.8961068,,{},2017-03-13T04:15:47.000-07:00
"{'amenity': 'Cineplex Cinemas Metropolis', 'house_number': '4700', 'road': 'Kingsway', 'neighbourhood': 'Metrotown', 'city': 'Burnaby', 'county': 'Metro Vancouver Regional District', 'state': 'British Columbia', 'postcode': 'V5H 4M1', 'country': 'Canada', 'country_code': 'ca'}",atm,Burnaby,49.227629,-123.0005748,,{'operator': 'cashNgo'},2018-04-21T18:56:29.000-07:00
"{'shop': 'Metropolis at Metrotown', 'house_number': '4700', 'road': 'Kingsway', 'neighbourhood': 'Metrotown', 'city': 'Burnaby', 'county': 'Metro Vancouver Regional District', 'state': 'British Columbia', 'postcode': 'V5H 4T6', 'country': 'Canada', 'country_code': 'ca'}",atm,Burnaby,49.22598320000001,-122.9969817,,"{'wheelchair': 'yes', 'level': '0', 'operator': 'Coast Capital'}",2017-07-15T03:28:42.000-07:00
"{'amenity': 'Simon Fraser University', 'road': 'Tower Road', 'city': 'Burnaby', 'county': 'Metro Vancouver Regional District', 'state': 'British Columbia', 'postcode': 'V5A 4Y0', 'country': 'Canada', 'country_code': 'ca'}",atm,Burnaby,49.2789791,-122.9190481,,{'operator': 'Scotiabank'},2014-01-23T15:24:10.000-08:00
"{'shop': 'Metropolis at Metrotown', 'house_number': '4700', 'road': 'Kingsway', 'neighbourhood': 'Metrotown', 'city': 'Burnaby', 'county': 'Metro Vancouver Regional District', 'state': 'British Columbia', 'postcode': 'V5H 4T6', 'country': 'Canada', 'country_code': 'ca'}",atm,Burnaby,49.2263843,-122.99838899999999,,{'operator': 'scotia'},2019-02-03T01:58:51.000-08:00
"{'shop': 'Metropolis at Metrotown', 'house_number': '4700', 'road': 'Kingsway', 'neighbourhood': 'Metrotown', 'city': 'Burnaby', 'county': 'Metro Vancouver Regional District', 'state': 'British Columbia', 'postcode': 'V5H 4T6', 'country': 'Canada', 'country_code': 'ca'}",atm,Burnaby,49.225698,-122.99819120000001,,"{'level': '0', 'operator': 'BMO'}",2017-09-03T06:59:10.000-07:00
"{'house_number': '4500', 'road': 'Kingsway', 'neighbourhood': 'Metrotown', 'city': 'Burnaby', 'county': 'Metro Vancouver Regional District', 'state': 'British Columbia', 'postcode': 'V5H 0E5', 'country': 'Canada', 'country_code': 'ca'}",atm,Burnaby,49.2296737,-123.00426110000001,,{},2018-04-21T18:32:27.000-07:00
"{'shop': 'Metropolis at Metrotown', 'house_number': '4700', 'road': 'Kingsway', 'neighbourhood': 'Metrotown', 'city': 'Burnaby', 'county': 'Metro Vancouver Regional District', 'state': 'British Columbia', 'postcode': 'V5H 4T6', 'country': 'Canada', 'country_code': 'ca'}",atm,Burnaby,49.225953999999994,-122.9969118,,{'operator': 'Coast Capital'},2017-07-15T03:28:51.000-07:00
"{'house_number': '9855', 'road': 'Austin Avenue', 'neighbourhood': 'Sullivan Heights', 'city': 'Burnaby', 'county': 'Metro Vancouver Regional District', 'state': 'British Columbia', 'postcode': 'V3J 1N7', 'country': 'Canada', 'country_code': 'ca'}",car_sharing,Burnaby,49.2497307,-122.896771,,"{'operator': 'Zipcars', 'capacity': '3'}",2017-08-28T03:52:48.000-07:00
"{'amenity': 'Electric Charging Station', 'house_number': '3700', 'road': 'Willingdon Avenue', 'neighbourhood': 'Discovery Park', 'city': 'Burnaby', 'municipality': 'District of North Vancouver', 'county': 'Metro Vancouver Regional District', 'state': 'British Columbia', 'postcode': 'V5G 3H4', 'country': 'Canada', 'country_code': 'ca'}",charging_station,Burnaby,49.2537233,-123.0001406,Electric Charging Station,{},2017-08-15T19:32:17.000-07:00
"{'amenity': 'Electric Charging Station', 'road': 'Willingdon Avenue', 'neighbourhood': 'Garden Village', 'city': 'Burnaby', 'municipality': 'District of North Vancouver', 'county': 'Metro Vancouver Regional District', 'state': 'British Columbia', 'postcode': 'V5G 4J3', 'country': 'Canada', 'country_code': 'ca'}",charging_station,Burnaby,49.246453499999994,-123.00411940000001,Electric Charging Station,{},2017-08-21T17:00:19.000-07:00
"{'amenity': 'Electric Charging Station', 'house_number': '3700', 'road': 'Willingdon Avenue', 'neighbourhood': 'Discovery Park', 'city': 'Burnaby', 'municipality': 'District of North Vancouver', 'county': 'Metro Vancouver Regional District', 'state': 'British Columbia', 'postcode': 'V5G 4J3', 'country': 'Canada', 'country_code': 'ca'}",charging_station,Burnaby,49.2512216,-123.0039381,Electric Charging Station,{},2017-08-21T16:44:41.000-07:00
"{'amenity': 'P7 Employee', 'road': 'Wayburne Drive', 'city': 'Burnaby', 'municipality': 'District of North Vancouver', 'county': 'Metro Vancouver Regional District', 'state': 'British Columbia', 'postcode': 'V5G 4X7', 'country': 'Canada', 'country_code': 'ca'}",charging_station,Burnaby,49.2497468,-122.9994277,Electric Charging Station,"{'opening_hours': '24/7', 'socket:chademo': '2', 'socket:type1': '6', 'fee': 'yes', 'capacity': '8'}",2016-12-02T19:08:47.000-08:00
"{'amenity': 'BCIT First Aid', 'house_number': '3700', 'road': 'Willingdon Avenue', 'neighbourhood': 'Discovery Park', 'city': 'Burnaby', 'municipality': 'District of North Vancouver', 'county': 'Metro Vancouver Regional District', 'state': 'British Columbia', 'postcode': 'V5G 3H4', 'country': 'Canada', 'country_code': 'ca'}",clinic,Burnaby,49.2518042,-123.00010870000001,BCIT First Aid,{'healthcare': 'clinic'},2019-09-03T20:14:18.000-07:00
"{'amenity': 'BCIT Student Health Services', 'house_number': '3700', 'road': 'Willingdon Avenue', 'neighbourhood': 'Garden Village', 'city': 'Burnaby', 'municipality': 'District of North Vancouver', 'county': 'Metro Vancouver Regional District', 'state': 'British Columbia', 'postcode': 'V5G 4J3', 'country': 'Canada', 'country_code': 'ca'}",clinic,Burnaby,49.2488066,-123.00038899999998,BCIT Student Health Services,{'note': 'first aid'},2017-08-15T19:32:18.000-07:00
"{'amenity': 'Spring Medical Centre', 'house_number': '4453', 'road': 'Lougheed Highway', 'city': 'Burnaby', 'municipality': 'District of North Vancouver', 'county': 'Metro Vancouver Regional District', 'state': 'British Columbia', 'postcode': 'V5C 3Z2', 'country': 'Canada', 'country_code': 'ca'}",clinic,Burnaby,49.2667079,-123.0047336,Spring Medical Centre,"{'addr:province': 'BC', 'addr:housenumber': '4453', 'phone': '+1-604-428-1363', 'opening_hours': '09:00-17:00', 'addr:street': 'Lougheed Highway', 'healthcare': 'clinic', 'addr:city': 'Burnaby'}",2020-02-21T01:55:01.000-08:00
"{'amenity': 'PrimceCare Medical Centre & Clinic', 'house_number': '7315', 'road': 'Edmonds Street', 'neighbourhood': 'Stride Avenue', 'city': 'Burnaby', 'county': 'Metro Vancouver Regional District', 'state': 'British Columbia', 'postcode': 'V5E 1G8', 'country': 'Canada', 'country_code': 'ca'}",clinic,Burnaby,49.2186777,-122.95167520000001,PrimceCare Medical Centre & Clinic,"{'addr:province': 'BC', 'addr:housenumber': '7315', 'website': 'https://primecaremedical.wordpress.com/about/', 'phone': '+1-604-519-3767', 'addr:street': 'Edmonds Street', 'healthcare': 'clinic', 'addr:city': 'Burnaby'}",2020-06-10T22:45:13.000-07:00
"{'amenity': 'Aurora Integrative Medical', 'road': 'Dawson Street', 'city': 'Burnaby', 'municipality': 'District of North Vancouver', 'county': 'Metro Vancouver Regional District', 'state': 'British Columbia', 'postcode': 'V5C 0A4', 'country': 'Canada', 'country_code': 'ca'}",clinic,Burnaby,49.264325899999996,-123.01125929999999,Aurora Integrative Medical,"{'addr:street': 'Dawson Street', 'healthcare': 'clinic', 'addr:city': 'Burnaby'}",2019-11-25T23:54:46.000-08:00
"{'amenity': 'Medical Clinic', 'road': 'Dawson Street', 'city': 'Burnaby', 'municipality': 'District of North Vancouver', 'county': 'Metro Vancouver Regional District', 'state': 'British Columbia', 'postcode': 'V5C 0A4', 'country': 'Canada', 'country_code': 'ca'}",clinic,Burnaby,49.2643075,-123.01076040000001,Medical Clinic,"{'addr:street': 'Dawson Street', 'healthcare': 'clinic', 'addr:city': 'Burnaby'}",2019-11-25T23:54:46.000-08:00
"{'amenity': 'Old Orchard', 'house_number': '4429', 'road': 'Kingsway', 'neighbourhood': 'Metrotown', 'city': 'Burnaby', 'county': 'Metro Vancouver Regional District', 'state': 'British Columbia', 'postcode': 'V5H2A1', 'country': 'Canada', 'country_code': 'ca'}",clinic,Burnaby,49.2314091,-123.0056977,Old Orchard,"{'addr:province': 'British Columbia', 'website': 'https://burnabymedicalclinic.com/', 'level': '1', 'addr:postcode': 'V5H2A1', 'addr:unit': '11', 'healthcare': 'clinic', 'addr:city': 'Burnaby', 'addr:housenumber': '4429', 'phone': '+1 604-431-6585', 'opening_hours': 'Mo-Fr 09:00-20:00;Sa 09:00-19:00; Su 10:00-19:00', 'name:en': 'Old Orchard', 'addr:street': 'Kingsway'}",2020-01-13T13:55:23.000-08:00
"{'amenity': 'Metrohealth Clinic', 'house_number': '4879', 'road': 'Kingsway', 'neighbourhood': 'Metrotown', 'city': 'Burnaby', 'county': 'Metro Vancouver Regional District', 'state': 'British Columbia', 'postcode': 'V5H 4T6', 'country': 'Canada', 'country_code': 'ca'}",clinic,Burnaby,49.2271779,-122.99486929999999,Metrohealth Clinic,"{'addr:housenumber': '4879', 'addr:street': 'Kingsway', 'healthcare': 'clinic', 'addr:city': 'Burnaby'}",2019-09-13T13:57:00.000-07:00
"{'amenity': 'Medical Clinic', 'house_number': '1612', 'road': 'McKay Avenue', 'neighbourhood': 'Metrotown', 'city': 'Burnaby', 'county': 'Metro Vancouver Regional District', 'state': 'British Columbia', 'postcode': 'V5H 2W7', 'country': 'Canada', 'country_code': 'ca'}",clinic,Burnaby,49.2286934,-123.0045233,Medical Clinic,"{'addr:housenumber': '1612', 'name:en': 'Medical Clinic', 'healthcare': 'clinic'}",2019-05-29T18:10:20.000-07:00
"{'amenity': 'Japan Shiatsu Clinic', 'house_number': '4700', 'road': 'Kingsway', 'neighbourhood': 'Metrotown', 'city': 'Burnaby', 'county': 'Metro Vancouver Regional District', 'state': 'British Columbia', 'postcode': 'V5H 4T6', 'country': 'Canada', 'country_code': 'ca'}",clinic,Burnaby,49.2257685,-122.99644070000001,Japan Shiatsu Clinic,"{'level': '1', 'healthcare': 'clinic'}",2019-07-20T18:37:01.000-07:00
"{'shop': 'Metropolis at Metrotown', 'house_number': '4700', 'road': 'Kingsway', 'neighbourhood': 'Metrotown', 'city': 'Burnaby', 'county': 'Metro Vancouver Regional District', 'state': 'British Columbia', 'postcode': 'V5H 4T6', 'country': 'Canada', 'country_code': 'ca'}",clinic,Burnaby,49.226324299999995,-123.001878,Metropolis Eyecare Centre,"{'name:en': 'Metropolis Eyecare Centre', 'level': '0', 'healthcare': 'clinic'}",2019-10-28T03:54:27.000-07:00
"{'building': 'Station Square', 'house_number': '6200', 'road': 'McKay Avenue', 'neighbourhood': 'Metrotown', 'city': 'Burnaby', 'county': 'Metro Vancouver Regional District', 'state': 'British Columbia', 'postcode': 'V5H 2C0', 'country': 'Canada', 'country_code': 'ca'}",clinic,Burnaby,49.2271596,-123.00476529999999,Station Square Medical Clinic,"{'addr:housenumber': '6200', 'addr:street': 'McKay Avenue', 'addr:unit': '150', 'healthcare': 'clinic', 'addr:city': 'Burnaby'}",2019-09-13T13:57:00.000-07:00
"{'amenity': 'J-Von Medical Centre', 'house_number': '4468', 'road': 'Beresford Street', 'neighbourhood': 'Metrotown', 'city': 'Burnaby', 'county': 'Metro Vancouver Regional District', 'state': 'British Columbia', 'postcode': 'V5H 2C0', 'country': 'Canada', 'country_code': 'ca'}",clinic,Burnaby,49.2251641,-123.0037419,J-Von Medical Centre,"{'addr:housenumber': '4468', 'addr:street': 'Beresford Street', 'phone': '+1-778-379-8299'}",2018-07-28T21:23:42.000-07:00
"{'amenity': 'Total Therapy', 'house_number': '4665', 'road': 'Central Boulevard', 'neighbourhood': 'Metrotown', 'city': 'Burnaby', 'county': 'Metro Vancouver Regional District', 'state': 'British Columbia', 'postcode': 'V5H 0C6', 'country': 'Canada', 'country_code': 'ca'}",clinic,Burnaby,49.2237341,-122.99875209999999,Total Therapy,"{'addr:housenumber': '4665', 'website': 'https://www.totaltherapy.ca/', 'opening_hours': 'Mo-Fr 07:00-20:00; Sa 09:00-16:00', 'addr:street': 'Central Boulevard', 'source': 'survey', 'entrance': 'main', 'addr:city': 'Burnaby'}",2019-09-13T13:56:49.000-07:00
"{'amenity': 'Zazpiak Bat Basque Society', 'road': 'Oakdale Road', 'city': 'Burnaby', 'county': 'Metro Vancouver Regional District', 'state': 'British Columbia', 'postcode': 'V5H 2X5', 'country': 'Canada', 'country_code': 'ca'}",community_centre,Burnaby,49.2301506,-122.98618229999998,,"{'website': 'http://bcbasque.com', 'addr:postcode': 'V5H 2X5', 'name:eu': 'Zazpiak Bat Basque Society', 'email': 'bcbasque@bcbasque.com'}",2019-07-18T02:26:34.000-07:00
"{'amenity': 'Bonsor 55+ Centre', 'house_number': '6533', 'road': 'Nelson Avenue', 'neighbourhood': 'Metrotown', 'city': 'Burnaby', 'county': 'Metro Vancouver Regional District', 'state': 'British Columbia', 'postcode': 'V5H 0C2', 'country': 'Canada', 'country_code': 'ca'}",community_centre,Burnaby,49.2241011,-122.99463290000001,Bonsor 55+ Centre,"{'note': 'Built 2013; building outline will be visible on aerial imagery after that date.', 'addr:housenumber': '6533', 'website': 'https://www.burnaby.ca/Things-To-Do/Community-Centres/Bonsor-Recreation-Complex/Seniors.html', 'access': 'yes', 'addr:street': 'Nelson Avenue', 'addr:postcode': 'V5H 0C2', 'addr:city': 'Burnaby'}",2019-09-13T13:56:49.000-07:00
"{'shop': 'Metropolis at Metrotown', 'house_number': '4700', 'road': 'Kingsway', 'neighbourhood': 'Metrotown', 'city': 'Burnaby', 'county': 'Metro Vancouver Regional District', 'state': 'British Columbia', 'postcode': 'V5H 4T6', 'country': 'Canada', 'country_code': 'ca'}",community_centre,Burnaby,49.2269239,-123.0020086,Jellybean Park,"{'level': '1', 'name:en': 'Jellybean Park'}",2017-09-03T06:59:20.000-07:00
"{'shop': 'Metropolis at Metrotown', 'house_number': '4700', 'road': 'Kingsway', 'neighbourhood': 'Metrotown', 'city': 'Burnaby', 'county': 'Metro Vancouver Regional District', 'state': 'British Columbia', 'postcode': 'V5H 4T6', 'country': 'Canada', 'country_code': 'ca'}",community_centre,Burnaby,49.2253539,-122.9989338,Jellybeans,"{'level': '1', 'fixme': ""This is a commercial child care while the parents are shopping in the mall. I don't think of it as a community centre.""}",2019-02-03T01:58:46.000-08:00
"{'shop': 'Metropolis at Metrotown', 'house_number': '4700', 'road': 'Kingsway', 'neighbourhood': 'Metrotown', 'city': 'Burnaby', 'county': 'Metro Vancouver Regional District', 'state': 'British Columbia', 'postcode': 'V5H 4T6', 'country': 'Canada', 'country_code': 'ca'}",community_centre,Burnaby,49.2272203,-122.99942539999999,CHQ,"{'level': '1', 'name:en': 'CHQ'}",2017-09-03T06:59:32.000-07:00
"{'amenity': 'Family Lounge', 'house_number': '9855', 'road': 'Austin Avenue', 'neighbourhood': 'Sullivan Heights', 'city': 'Burnaby', 'county': 'Metro Vancouver Regional District', 'state': 'British Columbia', 'postcode': 'V3J 1N7', 'country': 'Canada', 'country_code': 'ca'}",community_centre,Burnaby,49.2505823,-122.8958192,Family Lounge,{'name:en': 'Family Lounge'},2017-03-13T04:12:45.000-07:00
"{'amenity': 'Partyworld Ktv Burnaby', 'house_number': '4361', 'road': 'Kingsway', 'neighbourhood': 'Metrotown', 'city': 'Burnaby', 'county': 'Metro Vancouver Regional District', 'state': 'British Columbia', 'postcode': 'V5H2A1', 'country': 'Canada', 'country_code': 'ca'}",community_centre,Burnaby,49.2312959,-123.007224,Partyworld Ktv Burnaby,{'name:en': 'Partyworld Ktv Burnaby'},2017-03-19T02:33:35.000-07:00
"{'house_number': '4429', 'road': 'Kingsway', 'neighbourhood': 'Metrotown', 'city': 'Burnaby', 'county': 'Metro Vancouver Regional District', 'state': 'British Columbia', 'postcode': 'V5H2A1', 'country': 'Canada', 'country_code': 'ca'}",community_centre,Burnaby,49.231165600000004,-123.00611029999999,Maple Leaf Music School,{'name:en': 'Maple Leaf Music School'},2017-03-19T02:36:59.000-07:00
"{'amenity': 'K-Mix Karaoke', 'road': 'Kingsway', 'city': 'Burnaby', 'county': 'Metro Vancouver Regional District', 'state': 'British Columbia', 'postcode': 'V5J 1K4', 'country': 'Canada', 'country_code': 'ca'}",community_centre,Burnaby,49.2191845,-122.96966840000002,K-Mix Karaoke,{'name:en': 'K-Mix Karaoke'},2017-03-19T05:57:22.000-07:00
"{'amenity': 'St Thomas More Collegiate', 'road': '12th Avenue', 'neighbourhood': 'Eastburn', 'city': 'Burnaby', 'county': 'Metro Vancouver Regional District', 'state': 'British Columbia', 'postcode': 'V3N 3H7', 'country': 'Canada', 'country_code': 'ca'}",community_centre,Burnaby,49.2150615,-122.9385781,The Stanjean Center,{'name:en': 'The Stanjean Center'},2017-03-17T17:08:15.000-07:00
"{'building': 'Burnaby Square', 'house_number': '7885', 'road': '6th Street', 'city': 'Burnaby', 'county': 'Metro Vancouver Regional District', 'state': 'British Columbia', 'postcode': 'V3N 3N4', 'country': 'Canada', 'country_code': 'ca'}",doctors,Burnaby,49.21907,-122.9282604,Welcome Medical Clinic,"{'addr:housenumber': '#105-7885', 'website': 'http://welcomemedical.ca/', 'phone': '+1-604-526-1303', 'building:levels': '0', 'addr:street': '6th Street', 'fax': '+1-604-526-1304', 'addr:postcode': 'V3N 3N4', 'email': 'welcomeappointments@gmail.com', 'addr:city': 'Burnaby'}",2019-09-13T13:56:49.000-07:00
"{'house_number': '7850', 'road': '6th Street', 'city': 'Burnaby', 'county': 'Metro Vancouver Regional District', 'state': 'British Columbia', 'postcode': 'V3N 3N4', 'country': 'Canada', 'country_code': 'ca'}",doctors,Burnaby,49.2198196,-122.9281568,BaroMedical Hyperbaric Oxygen Clinic,{},2011-01-04T21:14:24.000-08:00
"{'amenity': 'Dr Luongo', 'road': 'Sunset Street', 'neighbourhood': 'Cascade Heights', 'city': 'Burnaby', 'municipality': 'District of North Vancouver', 'county': 'Metro Vancouver Regional District', 'state': 'British Columbia', 'postcode': 'V5G 3H0', 'country': 'Canada', 'country_code': 'ca'}",doctors,Burnaby,49.2498766,-123.0194496,Dr Luongo,{'name:en': 'Dr Luongo'},2017-08-23T22:23:31.000-07:00
"{'amenity': 'Crest Medical Clinic', 'house_number': '8695', 'road': 'Tenth Avenue', 'neighbourhood': 'Glenbrook', 'city_district': 'Glenbrooke North', 'city': 'Burnaby', 'county': 'Metro Vancouver Regional District', 'state': 'British Columbia', 'postcode': 'V3N 2G5', 'country': 'Canada', 'country_code': 'ca'}",doctors,Burnaby,49.231409899999996,-122.90624720000001,Crest Medical Clinic,"{'addr:housenumber': '8695', 'addr:street': 'Tenth Avenue', 'addr:city': 'Burnaby'}",2012-05-02T06:47:21.000-07:00
"{'amenity': 'Nuvola Gelato & Dolci', 'house_number': '4712', 'road': 'Hastings Street', 'neighbourhood': 'Brentwood Park', 'city': 'Burnaby', 'municipality': 'District of North Vancouver', 'county': 'Metro Vancouver Regional District', 'state': 'British Columbia', 'postcode': 'V5C2K8', 'country': 'Canada', 'country_code': 'ca'}",ice_cream,Burnaby,49.2808343,-122.99699299999999,Nuvola Gelato & Dolci,"{'addr:province': 'BC', 'addr:housenumber': '4712', 'addr:street': 'Hastings Street', 'addr:city': 'Burnaby'}",2019-12-25T00:06:41.000-08:00
"{'amenity': 'Marble Slab Creamery', 'house_number': '7527', 'road': 'Marine Way', 'neighbourhood': 'Big Bend', 'city': 'Burnaby', 'county': 'Metro Vancouver Regional District', 'state': 'British Columbia', 'postcode': 'V5J 0A3', 'country': 'Canada', 'country_code': 'ca'}",ice_cream,Burnaby,49.1983722,-122.9781715,Marble Slab Creamery,"{'brand:wikidata': 'Q17020087', 'cuisine': 'ice_cream', 'addr:housenumber': '7527', 'brand': 'Marble Slab Creamery', 'brand:wikipedia': 'en:Marble Slab Creamery'}",2019-09-11T03:48:59.000-07:00
"{'amenity': 'Soft Peaks Ice Cream', 'house_number': '4603', 'road': 'Kingsway', 'neighbourhood': 'Metrotown', 'city': 'Burnaby', 'county': 'Metro Vancouver Regional District', 'state': 'British Columbia', 'postcode': 'V5H 4N2', 'country': 'Canada', 'country_code': 'ca'}",ice_cream,Burnaby,49.229430799999996,-123.0019979,Soft Peaks Ice Cream,"{'addr:housenumber': '4603', 'addr:street': 'Kingsway', 'addr:unit': '115', 'addr:city': 'Burnaby'}",2019-09-13T13:57:04.000-07:00
"{'amenity': 'Glenburn Soda Fountain & Confectionery', 'house_number': '4090', 'road': 'Hastings Street', 'neighbourhood': 'Burnaby Heights', 'city': 'Burnaby', 'municipality': 'District of North Vancouver', 'county': 'Metro Vancouver Regional District', 'state': 'British Columbia', 'postcode': 'V5C 2J3', 'country': 'Canada', 'country_code': 'ca'}",ice_cream,Burnaby,49.2808609,-123.0146051,Glenburn Soda Fountain & Confectionery,"{'addr:housenumber': '4090', 'addr:street': 'Hastings Street', 'addr:city': 'Burnaby'}",2019-09-13T13:57:05.000-07:00
"{'house_number': '3700', 'road': 'Willingdon Avenue', 'neighbourhood': 'Discovery Park', 'city': 'Burnaby', 'municipality': 'District of North Vancouver', 'county': 'Metro Vancouver Regional District', 'state': 'British Columbia', 'postcode': 'V5G 4J3', 'country': 'Canada', 'country_code': 'ca'}",library,Burnaby,49.2493863,-123.0007303,,{},2020-06-27T14:02:01.000-07:00
"{'amenity': 'Cameron Library', 'house_number': '9523', 'road': 'Cameron Street', 'neighbourhood': 'Sullivan Heights', 'city': 'Burnaby', 'county': 'Metro Vancouver Regional District', 'state': 'British Columbia', 'postcode': 'V3J 1L6', 'country': 'Canada', 'country_code': 'ca'}",library,Burnaby,49.253816799999996,-122.89854469999999,Cameron Library,"{'wheelchair': 'yes', 'addr:housenumber': '9523', 'website': 'https://www.bpl.bc.ca/', 'phone': '+1-604-421-5454', 'opening_hours': 'Mo-Th 10:00-21:00; Fr-Sa 10:00-18:00; Su 12:00-17:00', 'addr:street': 'Cameron Street', 'addr:postcode': 'V3J 1L6', 'operator': 'Burnaby Public Library', 'addr:city': 'Burnaby'}",2020-01-09T02:44:13.000-08:00
"{'amenity': 'McGill Library', 'house_number': '4595', 'road': 'Albert Street', 'neighbourhood': 'Capitol Hill', 'city': 'Burnaby', 'municipality': 'District of North Vancouver', 'county': 'Metro Vancouver Regional District', 'state': 'British Columbia', 'postcode': 'V5C 2G6', 'country': 'Canada', 'country_code': 'ca'}",library,Burnaby,49.2826072,-123.0006149,McGill Library,"{'addr:housenumber': '4595', 'website': 'https://www.bpl.bc.ca/', 'phone': '+1-604-299-8955', 'opening_hours': 'Mo-Fr 10:00-21:00; Sa 10:00-16:00; Su 12:00-17:00', 'addr:street': 'Albert Street', 'addr:postcode': 'V5C 2G6', 'operator': 'Burnaby Public Library', 'addr:city': 'Burnaby'}",2019-09-13T13:56:49.000-07:00
"{'amenity': 'St. Michael Parish', 'road': 'Holmes Street', 'neighbourhood': 'Sapperton', 'city': 'Burnaby', 'county': 'Metro Vancouver Regional District', 'state': 'British Columbia', 'postcode': 'V3N 4C3', 'country': 'Canada', 'country_code': 'ca'}",place_of_worship,Burnaby,49.2361619,-122.8968372,St. Michael Parish,{'religion': 'christian'},2011-08-10T23:27:41.000-07:00
"{'amenity': 'Kingsway Church', 'house_number': '4061', 'road': 'Kingsway', 'city': 'Burnaby', 'county': 'Metro Vancouver Regional District', 'state': 'British Columbia', 'postcode': 'V5H 1Z1', 'country': 'Canada', 'country_code': 'ca'}",place_of_worship,Burnaby,49.23307929999999,-123.01430069999999,Kingsway Church,"{'addr:housenumber': '4061', 'phone': '+1-604-437-3748', 'addr:street': 'Kingsway', 'addr:postcode': 'V5H 1Z1', 'addr:city': 'Burnaby', 'religion': 'christian'}",2018-06-20T15:11:43.000-07:00
"{'amenity': 'Brentwood Park Alliance Church', 'road': 'Delta Avenue', 'neighbourhood': 'Brentwood Park', 'city': 'Burnaby', 'municipality': 'District of North Vancouver', 'county': 'Metro Vancouver Regional District', 'state': 'British Columbia', 'postcode': 'V5B 3G2', 'country': 'Canada', 'country_code': 'ca'}",place_of_worship,Burnaby,49.271606899999995,-122.9916818,Brentwood Park Alliance Church,{'religion': 'christian'},2013-06-06T07:30:05.000-07:00
"{'amenity': 'Christian Reformed Church', 'road': '13th Avenue', 'city': 'Burnaby', 'county': 'Metro Vancouver Regional District', 'state': 'British Columbia', 'postcode': 'V3N 2G5', 'country': 'Canada', 'country_code': 'ca'}",place_of_worship,Burnaby,49.226887,-122.9208031,Christian Reformed Church,"{'denomination': 'reformed', 'religion': 'christian'}",2020-06-28T00:41:54.000-07:00
"{'amenity': 'Burnaby Christ Church of China', 'road': 'Thomas Street', 'city': 'Burnaby', 'municipality': 'District of North Vancouver', 'county': 'Metro Vancouver Regional District', 'state': 'British Columbia', 'postcode': 'V5G 4C9', 'country': 'Canada', 'country_code': 'ca'}",place_of_worship,Burnaby,49.2478329,-122.96746940000001,Burnaby Christ Church of China,{'religion': 'christian'},2020-01-15T12:02:28.000-08:00
"{'amenity': 'Korean Baptist Church of Vancouver', 'road': 'Curtis Street', 'city': 'Burnaby', 'municipality': 'District of North Vancouver', 'county': 'Metro Vancouver Regional District', 'state': 'British Columbia', 'postcode': 'V5B 1T7', 'country': 'Canada', 'country_code': 'ca'}",place_of_worship,Burnaby,49.2749222,-122.97057609999999,Korean Baptist Church of Vancouver,{},2020-01-19T21:20:01.000-08:00
"{'amenity': 'Holy Cross Roman Catholic Church', 'road': 'Delta Avenue', 'neighbourhood': 'Brentwood Park', 'city': 'Burnaby', 'municipality': 'District of North Vancouver', 'county': 'Metro Vancouver Regional District', 'state': 'British Columbia', 'postcode': 'V5B 3G2', 'country': 'Canada', 'country_code': 'ca'}",place_of_worship,Burnaby,49.2703805,-122.991699,Holy Cross Roman Catholic Church,"{'denomination': 'roman_catholic', 'religion': 'christian'}",2013-06-26T11:01:41.000-07:00
"{'amenity': 'New Life Community Church', 'road': 'Government Street', 'neighbourhood': 'Sullivan Heights', 'city': 'Burnaby', 'county': 'Metro Vancouver Regional District', 'state': 'British Columbia', 'postcode': 'V3N 4T2', 'country': 'Canada', 'country_code': 'ca'}",place_of_worship,Burnaby,49.2504899,-122.91041129999999,New Life Community Church,{},2013-10-13T07:30:12.000-07:00
"{'house_number': '4383', 'road': 'Rumble Street', 'neighbourhood': 'South Slope', 'city': 'Burnaby', 'county': 'Metro Vancouver Regional District', 'state': 'British Columbia', 'postcode': 'V5J 5C2', 'country': 'Canada', 'country_code': 'ca'}",place_of_worship,Burnaby,49.2150574,-123.0058297,,"{'addr:housenumber': '4383', 'addr:street': 'Rumble Street', 'religion': 'christian'}",2016-12-06T09:26:07.000-08:00
"{'amenity': 'Willingdon Church', 'house_number': '4812', 'road': 'Willingdon Avenue', 'neighbourhood': 'Garden Village', 'city': 'Burnaby', 'municipality': 'District of North Vancouver', 'county': 'Metro Vancouver Regional District', 'state': 'British Columbia', 'postcode': 'V5G 4J3', 'country': 'Canada', 'country_code': 'ca'}",place_of_worship,Burnaby,49.2416768,-123.00255,Willingdon Church,"{'addr:housenumber': '4812', 'addr:street': 'Willingdon Avenue', 'denomination': 'mennonite', 'addr:city': 'Vancouver', 'religion': 'christian'}",2019-09-13T13:56:49.000-07:00
"{'amenity': ""Kingdom Hall of Jehovah's Witnesses"", 'house_number': '5975', 'road': 'Sunset Street', 'city': 'Burnaby', 'municipality': 'District of North Vancouver', 'county': 'Metro Vancouver Regional District', 'state': 'British Columbia', 'postcode': 'V5G 4N2', 'country': 'Canada', 'country_code': 'ca'}",place_of_worship,Burnaby,49.2497263,-122.9765437,Kingdom Hall of Jehovah's Witnesses,{},2017-09-23T05:35:23.000-07:00
"{'amenity': 'All Saints Anglican Church', 'road': 'Watling Street', 'neighbourhood': 'South Slope', 'city': 'Burnaby', 'county': 'Metro Vancouver Regional District', 'state': 'British Columbia', 'postcode': 'V5J 4K0', 'country': 'Canada', 'country_code': 'ca'}",place_of_worship,Burnaby,49.2162667,-122.9888517,,{},2010-07-21T23:22:37.000-07:00
"{'amenity': 'Cariboo Road Christian Fellowship', 'road': 'Trans-Canada Highway', 'city': 'Burnaby', 'county': 'Metro Vancouver Regional District', 'state': 'British Columbia', 'postcode': 'V3N 4T2', 'country': 'Canada', 'country_code': 'ca'}",place_of_worship,Burnaby,49.2443891,-122.9087262,Cariboo Road Christian Fellowship,"{'denomination': 'pentecostal', 'religion': 'christian'}",2011-03-31T08:11:54.000-07:00
"{'amenity': 'Regional Recycling Bottle Depot & Return It', 'house_number': '2961', 'road': 'Norland Avenue', 'city': 'Burnaby', 'municipality': 'District of North Vancouver', 'county': 'Metro Vancouver Regional District', 'state': 'British Columbia', 'postcode': 'V5B 3A9', 'country': 'Canada', 'country_code': 'ca'}",recycling,Burnaby,49.2570139,-122.97771440000001,Regional Recycling Bottle Depot & Return It,"{'addr:housenumber': '2961', 'recycling:glass': 'yes', 'recycling:paper': 'yes', 'addr:street': 'Norland Avenue', 'addr:postcode': 'V5B 3A9', 'recycling:cans': 'yes', 'addr:city': 'Burnaby'}",2019-09-13T13:56:49.000-07:00
"{'amenity': ""Lee's Bottle Depot"", 'road': 'Buller Avenue', 'city': 'Burnaby', 'county': 'Metro Vancouver Regional District', 'state': 'British Columbia', 'postcode': 'V5J 1K4', 'country': 'Canada', 'country_code': 'ca'}",recycling,Burnaby,49.21643870000001,-122.9779781,Lee's Bottle Depot,"{'recycling:glass_bottles': 'yes', 'recycling:plastic_bags': 'yes', 'recycling:plastic_bottles': 'yes', 'recycling:low_energy_bulbs': 'yes', 'recycling:batteries': 'yes', 'phone': '+1-604-435-3432', 'recycling:paper': 'yes', 'recycling_type': 'centre', 'recycling:plastic': 'yes', 'operator': 'Encorp Return-It', 'recycling:cans': 'yes'}",2020-04-05T18:55:29.000-07:00
"{'amenity': 'Kensington Depot', 'house_number': '6518', 'road': 'Hastings Street', 'neighbourhood': 'Westridge', 'city': 'Burnaby', 'municipality': 'District of North Vancouver', 'county': 'Metro Vancouver Regional District', 'state': 'British Columbia', 'postcode': 'V5B 1S0', 'country': 'Canada', 'country_code': 'ca'}",recycling,Burnaby,49.2795886,-122.9690189,Kensington Depot,"{'opening_hours': 'Mo-Su 10:00-05:00', 'addr:housenumber': '6518', 'recycling_type': 'centre', 'addr:street': 'Hastings Street', 'addr:city': 'Burnaby'}",2020-05-24T23:54:02.000-07:00
"{'amenity': 'Collingwood Bottle Exchange', 'house_number': '3805', 'road': 'Kingsway', 'city': 'Burnaby', 'county': 'Metro Vancouver Regional District', 'state': 'British Columbia', 'postcode': 'V5H 1Y4', 'country': 'Canada', 'country_code': 'ca'}",recycling,Burnaby,49.232753499999994,-123.01975949999999,Collingwood Bottle Exchange,"{'addr:housenumber': '3805', 'recycling_type': 'centre', 'addr:street': 'Kingsway', 'addr:postcode': 'V5H 1Y4', 'addr:city': 'Burnaby'}",2017-11-20T09:53:14.000-08:00
"{'amenity': 'Cariboo Hill Senior Secondary', 'house_number': '8580', 'road': '16th Avenue', 'city': 'Burnaby', 'county': 'Metro Vancouver Regional District', 'state': 'British Columbia', 'postcode': 'V3N 1S6', 'country': 'Canada', 'country_code': 'ca'}",school,Burnaby,49.232302600000004,-122.91360929999999,Cariboo Hill Senior Secondary,"{'addr:housenumber': '8580', 'addr:street': '16th Avenue', 'addr:postcode': 'V3N 1S6', 'addr:city': 'Burnaby'}",2019-09-13T13:56:49.000-07:00
"{'amenity': 'Capitol Hill School', 'road': 'Pandora Street', 'neighbourhood': 'Capitol Hill', 'city': 'Burnaby', 'municipality': 'District of North Vancouver', 'county': 'Metro Vancouver Regional District', 'state': 'British Columbia', 'postcode': 'V5B 1M3', 'country': 'Canada', 'country_code': 'ca'}",school,Burnaby,49.2808936,-122.98045570000001,Capitol Hill Elementary,{},2009-09-03T19:04:01.000-07:00
"{'amenity': 'Cameron Elementary School', 'road': 'Erickson Drive', 'neighbourhood': 'Sullivan Heights', 'city': 'Burnaby', 'county': 'Metro Vancouver Regional District', 'state': 'British Columbia', 'postcode': 'V3J 1L6', 'country': 'Canada', 'country_code': 'ca'}",school,Burnaby,49.2521567,-122.89931609999998,Cameron Elementary School,{},2010-09-30T05:15:30.000-07:00
"{'amenity': 'Burnaby Mountain Secondary School', 'road': 'Gaglardi Way', 'city': 'Burnaby', 'county': 'Metro Vancouver Regional District', 'state': 'British Columbia', 'postcode': 'V3J 7X5', 'country': 'Canada', 'country_code': 'ca'}",school,Burnaby,49.254876,-122.9111248,Burnaby Mountain High School,"{'addr:housenumber': '8300', 'website': 'https://mountain.burnabyschools.ca/', 'addr:street': 'Eastlake Drive', 'wikipedia': 'en:Burnaby Mountain Secondary School', 'addr:postcode': 'V3J 7X5', 'wikidata': 'Q4999591', 'addr:city': 'Burnaby'}",2019-03-19T06:11:23.000-07:00
"{'amenity': 'Aubrey Elementary', 'road': 'Curtis Street', 'city': 'Burnaby', 'municipality': 'District of North Vancouver', 'county': 'Metro Vancouver Regional District', 'state': 'British Columbia', 'postcode': 'V5B 1T7', 'country': 'Canada', 'country_code': 'ca'}",school,Burnaby,49.274575,-122.9779403,Aubrey Elementary,{},2020-01-19T21:22:59.000-08:00
"{'amenity': 'Holy Cross Elementary School', 'house_number': '1450', 'road': 'Delta Avenue', 'neighbourhood': 'Brentwood Park', 'city': 'Burnaby', 'municipality': 'District of North Vancouver', 'county': 'Metro Vancouver Regional District', 'state': 'British Columbia', 'postcode': 'V5B 3G2', 'country': 'Canada', 'country_code': 'ca'}",school,Burnaby,49.2708789,-122.9912956,Holy Cross Elementary School,"{'addr:housenumber': '1450', 'addr:street': 'Delta Avenue', 'addr:postcode': 'V5B 3G2'}",2014-11-07T06:05:21.000-08:00
"{'amenity': 'Images Theatre', 'road': 'Convocation Mall', 'city': 'Burnaby', 'county': 'Metro Vancouver Regional District', 'state': 'British Columbia', 'postcode': 'V5A 4X6', 'country': 'Canada', 'country_code': 'ca'}",theatre,Burnaby,49.279745299999995,-122.91689140000001,Images Theatre,{},2020-06-03T04:31:49.000-07:00
"{'building': 'Burnaby South Secondary School', 'road': 'Antrim Avenue', 'city': 'Burnaby', 'county': 'Metro Vancouver Regional District', 'state': 'British Columbia', 'postcode': 'V5J 2B7', 'country': 'Canada', 'country_code': 'ca'}",theatre,Burnaby,49.21633,-122.9846623,Michael J. Fox Theatre,"{'wheelchair': 'yes', 'addr:housenumber': '7373', 'website': 'https://www.michaeljfoxtheatre.ca/', 'phone': '+1-604-664-8875', 'addr:street': 'MacPherson Avenue', 'addr:postcode': 'V5J 2B7', 'addr:city': 'Burnaby'}",2019-07-01T01:00:58.000-07:00
"{'amenity': 'West Mall Complex', 'road': 'University Drive West', 'city': 'Burnaby', 'county': 'Metro Vancouver Regional District', 'state': 'British Columbia', 'postcode': 'V5A 4X6', 'country': 'Canada', 'country_code': 'ca'}",vending_machine,Burnaby,49.2799954,-122.92186540000002,,{},2012-05-17T21:44:44.000-07:00
"{'building': 'Holdom SkyTrain Station', 'road': 'Lougheed Highway', 'city': 'Burnaby', 'municipality': 'District of North Vancouver', 'county': 'Metro Vancouver Regional District', 'state': 'British Columbia', 'postcode': 'V5B 2X7', 'country': 'Canada', 'country_code': 'ca'}",vending_machine,Burnaby,49.2646877,-122.9816466,,{'vending': 'Pepsi'},2012-05-17T21:54:37.000-07:00
"{'house_number': '4601', 'road': 'Canada Way', 'city': 'Burnaby', 'municipality': 'District of North Vancouver', 'county': 'Metro Vancouver Regional District', 'state': 'British Columbia', 'postcode': 'V5G 4X7', 'country': 'Canada', 'country_code': 'ca'}",vending_machine,Burnaby,49.2554232,-122.9946372,,"{'vending': 'parking_tickets', 'operator': 'Impark'}",2020-05-13T19:25:15.000-07:00
"{'road': 'Lougheed Highway', 'city': 'Burnaby', 'municipality': 'District of North Vancouver', 'county': 'Metro Vancouver Regional District', 'state': 'British Columbia', 'postcode': 'V5C 6A8', 'country': 'Canada', 'country_code': 'ca'}",vending_machine,Burnaby,49.2658458,-123.01123009999999,,"{'vending': 'parking_tickets', 'payment:credit_cards': 'yes', 'operator': 'Westpark'}",2019-11-25T23:54:46.000-08:00
"{'man_made': 'Pacific Rim Flooring Supplies', 'road': 'Dawson Street', 'city': 'Burnaby', 'municipality': 'District of North Vancouver', 'county': 'Metro Vancouver Regional District', 'state': 'British Columbia', 'postcode': 'V5C 0A4', 'country': 'Canada', 'country_code': 'ca'}",vending_machine,Burnaby,49.2651675,-123.0106762,,"{'vending': 'parking_tickets', 'payment:credit_cards': 'yes', 'operator': 'Westpark'}",2019-11-25T23:54:46.000-08:00
"{'shop': 'Metropolis at Metrotown', 'house_number': '4700', 'road': 'Kingsway', 'neighbourhood': 'Metrotown', 'city': 'Burnaby', 'county': 'Metro Vancouver Regional District', 'state': 'British Columbia', 'postcode': 'V5H 4T6', 'country': 'Canada', 'country_code': 'ca'}",vending_machine,Burnaby,49.226126,-122.9986294,,"{'vending': 'drinks', 'level': '-1', 'operator': 'Dasini'}",2019-05-27T03:58:17.000-07:00
"{'amenity': 'Cineplex Cinemas Metropolis', 'house_number': '4700', 'road': 'Kingsway', 'neighbourhood': 'Metrotown', 'city': 'Burnaby', 'county': 'Metro Vancouver Regional District', 'state': 'British Columbia', 'postcode': 'V5H 4M1', 'country': 'Canada', 'country_code': 'ca'}",vending_machine,Burnaby,49.227656700000004,-123.00047040000001,Drinks,"{'vending': 'drinks', 'name:en': 'Drinks'}",2017-03-10T05:38:16.000-08:00
"{'amenity': 'Photos', 'house_number': '4700', 'road': 'Kingsway', 'neighbourhood': 'Metrotown', 'city': 'Burnaby', 'county': 'Metro Vancouver Regional District', 'state': 'British Columbia', 'postcode': 'V5H 2C3', 'country': 'Canada', 'country_code': 'ca'}",vending_machine,Burnaby,49.2255264,-122.9979937,Photos,{'name:en': 'Photos'},2018-04-21T18:49:39.000-07:00
"{'amenity': 'Cineplex Cinemas Metropolis', 'house_number': '4700', 'road': 'Kingsway', 'neighbourhood': 'Metrotown', 'city': 'Burnaby', 'county': 'Metro Vancouver Regional District', 'state': 'British Columbia', 'postcode': 'V5H 4M1', 'country': 'Canada', 'country_code': 'ca'}",vending_machine,Burnaby,49.2277639,-123.00035459999998,Lockers,{'name:en': 'Lockers'},2018-04-21T18:56:29.000-07:00
"{'shop': 'Metropolis at Metrotown', 'house_number': '4700', 'road': 'Kingsway', 'neighbourhood': 'Metrotown', 'city': 'Burnaby', 'county': 'Metro Vancouver Regional District', 'state': 'British Columbia', 'postcode': 'V5H 4T6', 'country': 'Canada', 'country_code': 'ca'}",vending_machine,Burnaby,49.22636729999999,-123.0020631,Photos,{'name:en': 'Photos'},2017-03-10T05:38:15.000-08:00
"{'shop': 'Metropolis at Metrotown', 'house_number': '4700', 'road': 'Kingsway', 'neighbourhood': 'Metrotown', 'city': 'Burnaby', 'county': 'Metro Vancouver Regional District', 'state': 'British Columbia', 'postcode': 'V5H 4T6', 'country': 'Canada', 'country_code': 'ca'}",vending_machine,Burnaby,49.226121,-122.99863899999998,Drinks,"{'vending': 'drinks', 'level': '0'}",2019-02-03T01:58:49.000-08:00
"{'amenity': 'Hastings Veterinary Hospital', 'house_number': '3995', 'road': 'Hastings Street', 'neighbourhood': 'Burnaby Heights', 'city': 'Burnaby', 'municipality': 'District of North Vancouver', 'county': 'Metro Vancouver Regional District', 'state': 'British Columbia', 'postcode': 'V5C 2J3', 'country': 'Canada', 'country_code': 'ca'}",veterinary,Burnaby,49.2813711,-123.01663020000001,Hastings Veterinary Hospital,"{'addr:housenumber': '3995', 'addr:street': 'Hastings Street', 'addr:city': 'Burnaby'}",2020-06-11T20:37:55.000-07:00
"{'amenity': 'North Burnaby Pet Hospital', 'house_number': '4431', 'road': 'Hastings Street', 'city': 'Burnaby', 'municipality': 'District of North Vancouver', 'county': 'Metro Vancouver Regional District', 'state': 'British Columbia', 'postcode': 'V5C 2H0', 'country': 'Canada', 'country_code': 'ca'}",veterinary,Burnaby,49.28115570000001,-123.00475359999999,North Burnaby Pet Hospital,"{'addr:housenumber': '4431', 'addr:street': 'Hastings Street', 'addr:city': 'Burnaby'}",2020-06-11T20:37:55.000-07:00
"{'amenity': 'Burnaby New Westminster Animal Hospital', 'house_number': '7877', 'road': 'Kingsway', 'city_district': 'West End', 'city': 'Burnaby', 'county': 'Metro Vancouver Regional District', 'state': 'British Columbia', 'postcode': 'V3M 1K0', 'country': 'Canada', 'country_code': 'ca'}",veterinary,Burnaby,49.2135417,-122.9386195,Burnaby New Westminster Animal Hospital,{},2013-11-26T17:29:34.000-08:00
"{'house_number': '7832', 'road': '6th Street', 'city': 'Burnaby', 'county': 'Metro Vancouver Regional District', 'state': 'British Columbia', 'postcode': 'V3N 3N4', 'country': 'Canada', 'country_code': 'ca'}",veterinary,Burnaby,49.2200507,-122.9287177,Central City Animal Hospital,"{'addr:housenumber': '7834', 'addr:street': '6th Street', 'phone': '+1-604-522-3344', 'addr:city': 'Burnaby'}",2018-10-26T20:29:59.000-07:00
"{'amenity': 'Boundary Animal Hospital', 'house_number': '3114', 'road': 'Boundary Road', 'neighbourhood': 'Cascade Heights', 'city': 'Burnaby', 'municipality': 'District of North Vancouver', 'county': 'Metro Vancouver Regional District', 'state': 'British Columbia', 'postcode': 'V5M 3Z9', 'country': 'Canada', 'country_code': 'ca'}",veterinary,Burnaby,49.2560732,-123.02328929999999,Boundary Animal Hospital,"{'addr:housenumber': '3114', 'addr:street': 'Boundary Road', 'addr:city': 'Burnaby'}",2019-11-16T04:48:06.000-08:00
"{'house_number': '435', 'road': 'North Road', 'city': 'Burnaby', 'county': 'Metro Vancouver Regional District', 'state': 'British Columbia', 'postcode': 'V3K 3V9', 'country': 'Canada', 'country_code': 'ca'}",veterinary,Burnaby,49.2473395,-122.8912506,,{},2018-12-08T01:49:20.000-08:00
"{'amenity': 'Metrotown Animal Hospital', 'road': 'Rumble Street', 'city': 'Burnaby', 'county': 'Metro Vancouver Regional District', 'state': 'British Columbia', 'postcode': 'V5J 4K0', 'country': 'Canada', 'country_code': 'ca'}",veterinary,Burnaby,49.21465300000001,-122.98810049999999,Metrotown Animal Hospital,{'phone': '+1-604-436-0106'},2018-10-25T14:21:00.000-07:00
"{'amenity': 'Wildlife Rescue Association of BC', 'house_number': '5216', 'road': 'Glencarin Drive', 'neighbourhood': 'Buckingham Heights', 'city': 'Burnaby', 'municipality': 'District of North Vancouver', 'county': 'Metro Vancouver Regional District', 'state': 'British Columbia', 'postcode': 'V5E 2S9', 'country': 'Canada', 'country_code': 'ca'}",animal_shelter,Burnaby,49.2413054,-122.95539209999998,Wildlife Rescue Association of BC,"{'addr:housenumber': '5216', 'addr:street': 'Glencarin Drive', 'addr:city': 'Burnaby'}",2019-09-13T13:56:49.000-07:00
"{'amenity': 'Burnaby Art Council', 'house_number': '6584', 'road': 'Deer Lake Avenue', 'neighbourhood': 'Buckingham Heights', 'city': 'Burnaby', 'municipality': 'District of North Vancouver', 'county': 'Metro Vancouver Regional District', 'state': 'British Columbia', 'postcode': 'V5G 3T7', 'country': 'Canada', 'country_code': 'ca'}",arts_centre,Burnaby,49.238963399999996,-122.96875349999999,Burnaby Art Council,"{'addr:province': 'BC', 'addr:housenumber': '6584', 'addr:country': 'CA', 'addr:street': 'Deer Lake Avenue', 'addr:postcode': 'V5G 3T7', 'addr:city': 'Burnaby'}",2020-02-24T17:36:56.000-08:00
"{'amenity': 'Shadbolt Centre For the Arts', 'house_number': '6450', 'road': 'Deer Lake Avenue', 'neighbourhood': 'Buckingham Heights', 'city': 'Burnaby', 'municipality': 'District of North Vancouver', 'county': 'Metro Vancouver Regional District', 'state': 'British Columbia', 'postcode': 'V5G 1M2', 'country': 'Canada', 'country_code': 'ca'}",arts_centre,Burnaby,49.2406991,-122.96951000000001,Shadbolt Centre For the Arts,"{'addr:housenumber': '6450', 'website': 'https://www.burnaby.ca/Things-To-Do/Arts-and-Heritage/Shadbolt-Centre-for-the-Arts.html', 'phone': '+1-604-297-4440', 'opening_hours': 'Mo-Th 09:00-20:00; Fr 09:00-19:00; Sa 09:00-16:00; Su 10:00-15:00', 'addr:street': 'Deer Lake Avenue', 'email': 'shadboltinfo@burnaby.ca'}",2020-01-09T02:05:39.000-08:00
"{'road': 'Pavillion Trail', 'city': 'Burnaby', 'municipality': 'District of North Vancouver', 'county': 'Metro Vancouver Regional District', 'state': 'British Columbia', 'postcode': 'V3J 3Z9', 'country': 'Canada', 'country_code': 'ca'}",bbq,Burnaby,49.2498481,-122.959708,,{},2011-09-06T03:52:10.000-07:00
"{'amenity': 'Dero', 'house_number': '3700', 'road': 'Willingdon Avenue', 'neighbourhood': 'Discovery Park', 'city': 'Burnaby', 'municipality': 'District of North Vancouver', 'county': 'Metro Vancouver Regional District', 'state': 'British Columbia', 'postcode': 'V5G 4J3', 'country': 'Canada', 'country_code': 'ca'}",bicycle_repair_station,Burnaby,49.2501234,-123.0028291,,"{'service:bicycle:tools': 'yes', 'opening_hours': '24/7', 'note': 'SW3', 'brand': 'Dero', 'service:bicycle:pump': 'yes'}",2018-09-19T16:12:04.000-07:00
"{'amenity': 'Dero', 'house_number': '3700', 'road': 'Willingdon Avenue', 'neighbourhood': 'Discovery Park', 'city': 'Burnaby', 'municipality': 'District of North Vancouver', 'county': 'Metro Vancouver Regional District', 'state': 'British Columbia', 'postcode': 'V5G 4J3', 'country': 'Canada', 'country_code': 'ca'}",bicycle_repair_station,Burnaby,49.251305200000004,-123.00347820000002,,"{'service:bicycle:tools': 'yes', 'opening_hours': '24/7', 'note': 'SW1', 'brand': 'Dero', 'service:bicycle:pump': 'yes'}",2018-09-19T16:10:54.000-07:00
"{'amenity': 'Dero', 'house_number': '3700', 'road': 'Willingdon Avenue', 'neighbourhood': 'Garden Village', 'city': 'Burnaby', 'municipality': 'District of North Vancouver', 'county': 'Metro Vancouver Regional District', 'state': 'British Columbia', 'postcode': 'V5G 4J3', 'country': 'Canada', 'country_code': 'ca'}",bicycle_repair_station,Burnaby,49.2489139,-123.00083149999999,,"{'service:bicycle:tools': 'yes', 'opening_hours': '24/7', 'note': 'SE16', 'brand': 'Dero', 'service:bicycle:pump': 'yes'}",2018-09-19T16:12:44.000-07:00
"{'amenity': 'British Columbia Institute Of Technology', 'house_number': '3700', 'road': 'Willingdon Avenue', 'neighbourhood': 'Garden Village', 'city': 'Burnaby', 'municipality': 'District of North Vancouver', 'county': 'Metro Vancouver Regional District', 'state': 'British Columbia', 'postcode': 'V5G 4J3', 'country': 'Canada', 'country_code': 'ca'}",bicycle_repair_station,Burnaby,49.25372470000001,-123.00128149999999,,"{'service:bicycle:tools': 'yes', 'opening_hours': '24/7', 'note': 'NE1', 'brand': 'Dero', 'service:bicycle:pump': 'yes'}",2018-09-19T16:09:47.000-07:00
"{'amenity': 'Vancouver Bullion & Currency Exchange', 'house_number': '4700', 'road': 'Kingsway', 'neighbourhood': 'Metrotown', 'city': 'Burnaby', 'county': 'Metro Vancouver Regional District', 'state': 'British Columbia', 'postcode': 'V5H 2B3', 'country': 'Canada', 'country_code': 'ca'}",bureau_de_change,Burnaby,49.226647899999996,-123.002152,Vancouver Bullion & Currency Exchange,"{'currency:USD': 'yes', 'website': 'https://www.vbce.ca/', 'currency:CAD': 'yes', 'currency:MXN': 'yes', 'currency:EUR': 'yes', 'payment:cash': 'yes', 'currency:others': 'yes', 'addr:housenumber': '4700', 'currency:GBP': 'yes', 'alt_name': 'VBCE', 'currency:JPY': 'yes', 'phone': '+1-604-558-2468', 'opening_hours': 'Mo-Fr 10:00-19:00; Sa-Su 10:00-17:00', 'addr:street': 'Kingsway', 'payment:debit_cards': 'yes'}",2020-01-09T07:05:09.000-08:00
"{'shop': 'Crystal Mall', 'house_number': '4500', 'road': 'Kingsway', 'neighbourhood': 'Metrotown', 'city': 'Burnaby', 'county': 'Metro Vancouver Regional District', 'state': 'British Columbia', 'postcode': 'V5H 0E5', 'country': 'Canada', 'country_code': 'ca'}",bureau_de_change,Burnaby,49.2296812,-123.00435829999999,Currency Exchange,"{'addr:housenumber': '2830', 'name:en': 'Currency Exchange'}",2017-03-22T04:36:10.000-07:00
"{'shop': 'MR Auto', 'road': 'Kingsway', 'city': 'Burnaby', 'county': 'Metro Vancouver Regional District', 'state': 'British Columbia', 'postcode': 'V5J 1K4', 'country': 'Canada', 'country_code': 'ca'}",car_rental,Burnaby,49.219559600000004,-122.97175929999999,Mr. Rent a Car,{'name:en': 'Mr. Renta a Car'},2019-06-14T03:12:10.000-07:00
"{'amenity': 'Avis', 'road': 'Kingsway', 'neighbourhood': 'Metrotown', 'city': 'Burnaby', 'county': 'Metro Vancouver Regional District', 'state': 'British Columbia', 'postcode': 'V5H 4N2', 'country': 'Canada', 'country_code': 'ca'}",car_rental,Burnaby,49.229482399999995,-123.00213659999999,Avis,"{'brand:wikidata': 'Q791136', 'name:en': 'Avis', 'brand': 'Avis', 'brand:wikipedia': 'en:Avis Car Rental'}",2019-05-27T03:58:20.000-07:00
"{'amenity': 'Shine Car Wash', 'house_number': '7500', 'road': 'Gilley Avenue', 'city': 'Burnaby', 'county': 'Metro Vancouver Regional District', 'state': 'British Columbia', 'postcode': 'V5J 1K4', 'country': 'Canada', 'country_code': 'ca'}",car_wash,Burnaby,49.2158352,-122.97104709999999,Shine Car Wash,"{'opening_hours': '24/7', 'addr:housenumber': '7500', 'addr:street': 'Gilley Avenue'}",2019-06-13T04:21:28.000-07:00
"{'building': 'Oasis Car Wash', 'road': 'Grimmer Street', 'city': 'Burnaby', 'county': 'Metro Vancouver Regional District', 'state': 'British Columbia', 'postcode': 'V5J 4R9', 'country': 'Canada', 'country_code': 'ca'}",car_wash,Burnaby,49.223955,-122.98716329999999,Oasis Car Wash,"{'self_service': 'no', 'automated': 'yes', 'operator': 'Oasis Car Wash'}",2013-01-12T16:44:09.000-08:00
"{'amenity': 'Golden Car Wash', 'road': 'Imperial Street', 'neighbourhood': 'Metrotown', 'city': 'Burnaby', 'county': 'Metro Vancouver Regional District', 'state': 'British Columbia', 'postcode': 'V5J 1C4', 'country': 'Canada', 'country_code': 'ca'}",car_wash,Burnaby,49.2216916,-122.9903604,Golden Car Wash,{},2018-08-16T04:45:47.000-07:00
"{'amenity': 'Shell', 'road': 'Lougheed Highway', 'city': 'Burnaby', 'county': 'Metro Vancouver Regional District', 'state': 'British Columbia', 'postcode': 'V3K 6V9', 'country': 'Canada', 'country_code': 'ca'}",car_wash,Burnaby,49.2469313,-122.8937102,,{},2018-05-05T21:21:46.000-07:00
"{'amenity': 'Fraser International College', 'road': 'Nelson Way', 'commercial': 'Discovery Place', 'city': 'Burnaby', 'county': 'Metro Vancouver Regional District', 'state': 'British Columbia', 'postcode': 'V5A 4Y0', 'country': 'Canada', 'country_code': 'ca'}",college,Burnaby,49.2738086,-122.9122497,Fraser International College,{},2020-03-03T06:30:05.000-08:00
"{'amenity': 'Grand Chinese Restaurant', 'road': 'Lougheed Highway', 'city': 'Burnaby', 'municipality': 'District of North Vancouver', 'county': 'Metro Vancouver Regional District', 'state': 'British Columbia', 'postcode': 'V5C 3Z2', 'country': 'Canada', 'country_code': 'ca'}",compressed_air,Burnaby,49.266764200000004,-123.0039018,,"{'access': 'yes', 'covered': 'no'}",2020-03-03T02:18:15.000-08:00
"{'amenity': 'Chevron', 'road': 'Rumble Urban Trail', 'neighbourhood': 'Suncrest', 'city': 'Burnaby', 'county': 'Metro Vancouver Regional District', 'state': 'British Columbia', 'postcode': 'V5J 1Z3', 'country': 'Canada', 'country_code': 'ca'}",compressed_air,Burnaby,49.214993299999996,-122.9892656,,{},2019-06-29T22:44:48.000-07:00
"{'amenity': 'K Martial Arts Centre', 'road': 'Dawson Street', 'city': 'Burnaby', 'municipality': 'District of North Vancouver', 'county': 'Metro Vancouver Regional District', 'state': 'British Columbia', 'postcode': 'V5C 0A4', 'country': 'Canada', 'country_code': 'ca'}",dojo,Burnaby,49.264319799999996,-123.01103799999999,K Martial Arts Centre,"{'addr:street': 'Dawson Street', 'addr:city': 'Burnaby'}",2019-11-25T23:54:46.000-08:00
"{'amenity': 'Aikido Yoshinkai Burnaby', 'house_number': '7671', 'road': 'Edmonds Street', 'neighbourhood': 'Eastburn', 'city': 'Burnaby', 'county': 'Metro Vancouver Regional District', 'state': 'British Columbia', 'postcode': 'V3N 1B6', 'country': 'Canada', 'country_code': 'ca'}",dojo,Burnaby,49.2237917,-122.94183570000001,Aikido Yoshinkai Burnaby,"{'note': 'Instruction in Yoshinkan Aikido by Shihan Robert Mustard (8th Dan)', 'addr:housenumber': '7671', 'website': 'http://aikidoburnaby.com/', 'phone': '+1-604-786-2334', 'opening_hours': 'Mo-Th 19:30-21:00 ""adults""; Sa 10:30-12:00 ""adults""; Tu,We 16:30-17:30 ""kids""', 'addr:street': 'Edmonds Street', 'addr:postcode': 'V3N 1B6', 'sport': 'aikido', 'addr:city': 'Burnaby'}",2019-09-02T22:08:26.000-07:00
"{'amenity': 'Gold Star Professional Driving School', 'house_number': '3989', 'road': 'Henning Drive', 'city': 'Burnaby', 'municipality': 'District of North Vancouver', 'county': 'Metro Vancouver Regional District', 'state': 'British Columbia', 'postcode': 'V5C 6P7', 'country': 'Canada', 'country_code': 'ca'}",driving_school,Burnaby,49.26488079999999,-123.0174645,Gold Star Professional Driving School,"{'addr:housenumber': '3989', 'website': 'https://www.goldstarprofessional.com/', 'phone': '+1-778-889-7167', 'opening_hours': 'Mo-Fr 10:00-15:00', 'description': 'A family-operated, certified driving school specializing in Class 1, 3, 5 and 7 driving lessons.', 'addr:street': 'Henning Drive', 'addr:unit': '123'}",2019-01-01T22:27:32.000-08:00
"{'house_number': '4567', 'road': 'Lougheed Highway', 'city': 'Burnaby', 'municipality': 'District of North Vancouver', 'county': 'Metro Vancouver Regional District', 'state': 'British Columbia', 'postcode': 'V5C 0B3', 'country': 'Canada', 'country_code': 'ca'}",food_court,Burnaby,49.2681865,-123.00075929999998,,{},2019-07-14T20:13:35.000-07:00
"{'house_number': '4500', 'road': 'Kingsway', 'neighbourhood': 'Metrotown', 'city': 'Burnaby', 'county': 'Metro Vancouver Regional District', 'state': 'British Columbia', 'postcode': 'V5H 0E5', 'country': 'Canada', 'country_code': 'ca'}",food_court,Burnaby,49.2287242,-123.00487,,{'level': '2'},2018-04-21T17:33:25.000-07:00
"{'amenity': 'Lougheed Village Bar & Grill', 'road': 'Lougheed Highway', 'neighbourhood': 'Sullivan Heights', 'city': 'Burnaby', 'county': 'Metro Vancouver Regional District', 'state': 'British Columbia', 'postcode': 'V3N', 'country': 'Canada', 'country_code': 'ca'}",fountain,Burnaby,49.25218220000001,-122.90164579999998,,{},2018-05-10T03:13:08.000-07:00
"{'amenity': 'Simon Fraser University', 'road': 'Tower Road', 'city': 'Burnaby', 'county': 'Metro Vancouver Regional District', 'state': 'British Columbia', 'postcode': 'V5A 4Y0', 'country': 'Canada', 'country_code': 'ca'}",fountain,Burnaby,49.2792994,-122.9133219,,{},2019-10-26T00:12:51.000-07:00
"{'amenity': 'Mermaid Fountain', 'road': 'Willingdon Avenue', 'neighbourhood': 'Metrotown', 'city': 'Burnaby', 'county': 'Metro Vancouver Regional District', 'state': 'British Columbia', 'postcode': 'V5H 4V3', 'country': 'Canada', 'country_code': 'ca'}",fountain,Burnaby,49.2292458,-123.0046943,Mermaid Fountain,{},2018-04-26T02:46:24.000-07:00
"{'shop': 'Metropolis at Metrotown', 'house_number': '4700', 'road': 'Kingsway', 'neighbourhood': 'Metrotown', 'city': 'Burnaby', 'county': 'Metro Vancouver Regional District', 'state': 'British Columbia', 'postcode': 'V5H 4T6', 'country': 'Canada', 'country_code': 'ca'}",fountain,Burnaby,49.2261655,-122.99713440000001,,{},2016-07-26T03:45:05.000-07:00
"{'house_number': '9541', 'road': 'Erickson Drive', 'neighbourhood': 'Sullivan Heights', 'city': 'Burnaby', 'county': 'Metro Vancouver Regional District', 'state': 'British Columbia', 'postcode': 'V3J 1L6', 'country': 'Canada', 'country_code': 'ca'}",fountain,Burnaby,49.2524624,-122.9007733,,"{'man_made': 'yes', 'description': 'Water feature that also serves as a sign for the Lougheed Village residential complex'}",2018-05-08T07:58:33.000-07:00
"{'road': 'Erickson Drive', 'neighbourhood': 'Sullivan Heights', 'city': 'Burnaby', 'county': 'Metro Vancouver Regional District', 'state': 'British Columbia', 'postcode': 'V3J 1L6', 'country': 'Canada', 'country_code': 'ca'}",fountain,Burnaby,49.2524012,-122.9015139,,{},2018-05-08T07:58:36.000-07:00
"{'house_number': '4700', 'road': 'Kingsway', 'neighbourhood': 'Metrotown', 'city': 'Burnaby', 'county': 'Metro Vancouver Regional District', 'state': 'British Columbia', 'postcode': 'V5H 2C3', 'country': 'Canada', 'country_code': 'ca'}",fountain,Burnaby,49.226020500000004,-122.99927379999998,,{},2017-03-12T06:10:39.000-07:00
"{'amenity': 'Simon Fraser University', 'road': 'Tower Road', 'city': 'Burnaby', 'county': 'Metro Vancouver Regional District', 'state': 'British Columbia', 'postcode': 'V5A 4Y0', 'country': 'Canada', 'country_code': 'ca'}",fountain,Burnaby,49.2782155,-122.91281409999998,,{},2014-10-11T05:59:34.000-07:00
"{'building': 'Lifelabs Main Building', 'house_number': '3680', 'road': 'Gilmore Way', 'neighbourhood': 'Discovery Park', 'city': 'Burnaby', 'municipality': 'District of North Vancouver', 'county': 'Metro Vancouver Regional District', 'state': 'British Columbia', 'postcode': 'V5G 4V8', 'country': 'Canada', 'country_code': 'ca'}",hospital,Burnaby,49.2519986,-123.00751729999999,Chartwell Carlton Retirement Residence,"{'addr:housenumber': '4110', 'addr:street': 'Norfolk Street', 'addr:postcode': 'V5G 0C1', 'addr:city': 'Burnaby'}",2019-09-13T13:56:49.000-07:00
"{'house_number': '3405', 'road': 'Willingdon Avenue', 'neighbourhood': 'Discovery Park', 'city': 'Burnaby', 'municipality': 'District of North Vancouver', 'county': 'Metro Vancouver Regional District', 'state': 'British Columbia', 'postcode': 'V5G 3H4', 'country': 'Canada', 'country_code': 'ca'}",hospital,Burnaby,49.2540805,-123.0056314,Burnaby Centre for Mental Health and Addiction,"{'addr:housenumber': '3405', 'website': 'http://www.bcmhsus.ca/our-services/burnaby-centre-for-mental-health-addiction', 'phone': '+1-604-675-3950', 'healthcare:speciality': 'mental_health', 'opening_hours': '24/7', 'addr:street': 'Willingdon Avenue', 'fax': '+1-604-675-3955', 'addr:postcode': 'V5G 3H4', 'operator': 'Provincial Health Services Authoriy', 'healthcare': 'hospital', 'addr:city': 'Burnaby'}",2019-10-27T17:08:25.000-07:00
"{'amenity': 'CEFA Early Learning', 'house_number': '4021', 'road': 'Kingsway', 'city': 'Burnaby', 'county': 'Metro Vancouver Regional District', 'state': 'British Columbia', 'postcode': 'V5H 1Y9', 'country': 'Canada', 'country_code': 'ca'}",kindergarten,Burnaby,49.2330789,-123.01555400000001,CEFA Early Learning,"{'addr:housenumber': '4021', 'addr:street': 'Kingsway', 'phone': '+1-604-568-8808', 'addr:postcode': 'V5H 1Y9', 'addr:city': 'Burnaby'}",2018-06-20T15:11:43.000-07:00
"{'amenity': 'Strand Hall', 'road': 'Arts Road', 'city': 'Burnaby', 'county': 'Metro Vancouver Regional District', 'state': 'British Columbia', 'postcode': 'V5A 4X6', 'country': 'Canada', 'country_code': 'ca'}",loading_dock,Burnaby,49.279151399999996,-122.91501869999999,,{},2019-10-28T17:35:15.000-07:00
"{'amenity': 'WAC Bennett Library', 'road': 'Convocation Mall', 'city': 'Burnaby', 'county': 'Metro Vancouver Regional District', 'state': 'British Columbia', 'country': 'Canada', 'country_code': 'ca'}",loading_dock,Burnaby,49.2797189,-122.9182919,,{},2019-10-28T17:35:15.000-07:00
"{'house_number': '4601', 'road': 'Canada Way', 'city': 'Burnaby', 'municipality': 'District of North Vancouver', 'county': 'Metro Vancouver Regional District', 'state': 'British Columbia', 'postcode': 'V5G 4X7', 'country': 'Canada', 'country_code': 'ca'}",loading_dock,Burnaby,49.255260899999996,-122.99500420000001,,{},2020-05-13T19:25:15.000-07:00
"{'amenity': ""Burnaby Artisan Farmers' Market"", 'house_number': '4949', 'road': 'Canada Way', 'city': 'Burnaby', 'municipality': 'District of North Vancouver', 'county': 'Metro Vancouver Regional District', 'state': 'British Columbia', 'postcode': 'V5G 4A3', 'country': 'Canada', 'country_code': 'ca'}",marketplace,Burnaby,49.2434955,-122.97301609999998,Burnaby Artisan Farmers' Market,"{'addr:province': 'BC', 'addr:housenumber': '4949', 'addr:country': 'CA', 'addr:street': 'Canada Way', 'addr:postcode': 'V5G 4A3', 'addr:city': 'Burnaby'}",2020-02-11T20:27:26.000-08:00
"{'house_number': '4500', 'road': 'Kingsway', 'neighbourhood': 'Metrotown', 'city': 'Burnaby', 'county': 'Metro Vancouver Regional District', 'state': 'British Columbia', 'postcode': 'V5H 0E5', 'country': 'Canada', 'country_code': 'ca'}",marketplace,Burnaby,49.2288348,-123.0047566,,{},2012-05-09T11:01:31.000-07:00
"{'amenity': 'Production Station Bus Loop', 'road': 'Thunderbird Crescent', 'city': 'Burnaby', 'county': 'Metro Vancouver Regional District', 'state': 'British Columbia', 'postcode': 'V5A 4R4', 'country': 'Canada', 'country_code': 'ca'}",bus_station,Burnaby,49.2538217,-122.91814840000002,Production Station Bus Loop,{},2016-12-10T05:39:50.000-08:00
"{'building': 'Patterson Station', 'road': 'Patterson Avenue', 'city': 'Burnaby', 'county': 'Metro Vancouver Regional District', 'state': 'British Columbia', 'postcode': 'V5H 1Z1', 'country': 'Canada', 'country_code': 'ca'}",bus_station,Burnaby,49.229690399999996,-123.0126437,Patterson station,"{'bus': 'yes', 'public_transport': 'station'}",2019-05-29T18:10:20.000-07:00
"{'amenity': 'Lougheed Station', 'road': 'Lougheed Bus platform', 'city': 'Burnaby', 'county': 'Metro Vancouver Regional District', 'state': 'British Columbia', 'postcode': 'V3J 1S2', 'country': 'Canada', 'country_code': 'ca'}",bus_station,Burnaby,49.2476906,-122.8951244,Lougheed Station,{},2016-06-07T21:04:53.000-07:00
"{'amenity': 'Morning Star Family Child Care', 'house_number': '1345', 'road': 'Aldrin Place', 'city': 'Burnaby', 'municipality': 'District of North Vancouver', 'county': 'Metro Vancouver Regional District', 'state': 'British Columbia', 'postcode': 'V5A2N9', 'country': 'Canada', 'country_code': 'ca'}",childcare,Burnaby,49.272121899999995,-122.95526740000001,Morning Star Family Child Care,"{'addr:province': 'British Columbia', 'addr:housenumber': '1345', 'website': 'https://morningstarfamilychildcare.team/photos.html', 'addr:street': 'Aldrin Place', 'addr:postcode': 'V5A2N9', 'addr:city': 'Burnaby'}",2020-06-23T02:02:51.000-07:00
"{'amenity': 'Childcare', 'house_number': '3700', 'road': 'Willingdon Avenue', 'neighbourhood': 'Garden Village', 'city': 'Burnaby', 'municipality': 'District of North Vancouver', 'county': 'Metro Vancouver Regional District', 'state': 'British Columbia', 'postcode': 'V5G 4J3', 'country': 'Canada', 'country_code': 'ca'}",childcare,Burnaby,49.243775799999995,-122.9996473,Childcare,{},2016-12-02T19:08:45.000-08:00
"{'amenity': 'P21 Employee', 'road': 'Smith Street', 'neighbourhood': 'Discovery Park', 'city': 'Burnaby', 'municipality': 'District of North Vancouver', 'county': 'Metro Vancouver Regional District', 'state': 'British Columbia', 'postcode': 'V5G 3H4', 'country': 'Canada', 'country_code': 'ca'}",motorcycle_parking,Burnaby,49.254020000000004,-122.99988490000001,Motorcycle,{},2017-08-15T19:32:18.000-07:00
"{'amenity': 'Motorcycle', 'house_number': '3700', 'road': 'Willingdon Avenue', 'neighbourhood': 'Garden Village', 'city': 'Burnaby', 'municipality': 'District of North Vancouver', 'county': 'Metro Vancouver Regional District', 'state': 'British Columbia', 'postcode': 'V5G 4J3', 'country': 'Canada', 'country_code': 'ca'}",motorcycle_parking,Burnaby,49.249212799999995,-123.0001257,Motorcycle,{},2017-08-15T19:32:17.000-07:00
"{'amenity': 'V4 Visitor', 'road': 'White Avenue South', 'neighbourhood': 'Discovery Park', 'city': 'Burnaby', 'municipality': 'District of North Vancouver', 'county': 'Metro Vancouver Regional District', 'state': 'British Columbia', 'postcode': 'V5G 4J3', 'country': 'Canada', 'country_code': 'ca'}",motorcycle_parking,Burnaby,49.2491354,-123.0032562,,{},2020-06-27T14:02:01.000-07:00
"{'amenity': 'Motorcycle', 'house_number': '3700', 'road': 'Willingdon Avenue', 'neighbourhood': 'Discovery Park', 'city': 'Burnaby', 'municipality': 'District of North Vancouver', 'county': 'Metro Vancouver Regional District', 'state': 'British Columbia', 'postcode': 'V5G 3H4', 'country': 'Canada', 'country_code': 'ca'}",motorcycle_parking,Burnaby,49.253675,-123.0019644,Motorcycle,{},2017-08-21T18:10:44.000-07:00
"{'amenity': 'Raymond James Ltd', 'house_number': '4720', 'road': 'Kingsway', 'neighbourhood': 'Metrotown', 'city': 'Burnaby', 'county': 'Metro Vancouver Regional District', 'state': 'British Columbia', 'postcode': 'V5H 4N2', 'country': 'Canada', 'country_code': 'ca'}",office_financial,Burnaby,49.2299383,-123.00284920000001,Raymond James Ltd,"{'contact:facebook': 'facebook.com/raymondjamescdn', 'addr:housenumber': '4720', 'alt_name': 'Raymond James Ltd', 'contact:phone': '+1-604-451-3100', 'opening_hours': 'Mo-Fr:08:00-16:00; Sa-Su:off', 'addr:street': 'Kingsway ', 'addr:postcode': 'V5H 4N2', 'contact:linkedin': 'linkedin.com/company/raymond-james-ltd.', 'contact:website': 'raymondjames.ca/en_ca/', 'contact:twitter': 'twitter.com/raymondjamescdn', 'addr:city': 'Burnaby'}",2019-11-26T19:58:08.000-08:00
"{'shop': 'Northgate Village', 'road': 'Cameron Street', 'neighbourhood': 'Sullivan Heights', 'city': 'Burnaby', 'county': 'Metro Vancouver Regional District', 'state': 'British Columbia', 'postcode': 'V3J 0A0', 'country': 'Canada', 'country_code': 'ca'}",park,Burnaby,49.2527909,-122.89348290000001,Fitness City,{},2010-12-01T10:44:06.000-08:00
"{'building': 'SW 1', 'road': 'White Avenue South', 'neighbourhood': 'Discovery Park', 'city': 'Burnaby', 'municipality': 'District of North Vancouver', 'county': 'Metro Vancouver Regional District', 'state': 'British Columbia', 'postcode': 'V5G 4J3', 'country': 'Canada', 'country_code': 'ca'}",police,Burnaby,49.251308200000004,-123.00263170000001,BCIT Security,{},2016-04-13T16:20:51.000-07:00
"{'shop': 'Crystal Mall', 'house_number': '4500', 'road': 'Kingsway', 'neighbourhood': 'Metrotown', 'city': 'Burnaby', 'county': 'Metro Vancouver Regional District', 'state': 'British Columbia', 'postcode': 'V5H 0E5', 'country': 'Canada', 'country_code': 'ca'}",police,Burnaby,49.228851399999996,-123.00586470000002,RCMP Southwest Community Police Office,"{'addr:housenumber': '4501', 'phone': '+1-604-656-3232', 'addr:street': 'Kingsborough Street', 'addr:postcode': 'V5H 4V3', 'operator': 'Royal Canadian Mounted Police', 'addr:city': 'Burnaby'}",2019-09-13T13:56:58.000-07:00
"{'house_number': '6355', 'road': 'Deer Lake Avenue', 'neighbourhood': 'Buckingham Heights', 'city': 'Burnaby', 'municipality': 'District of North Vancouver', 'county': 'Metro Vancouver Regional District', 'state': 'British Columbia', 'postcode': 'V5G 1M2', 'country': 'Canada', 'country_code': 'ca'}",police,Burnaby,49.2421347,-122.97115900000001,Burnaby RCMP,"{'opening_hours': 'Mo-Su 08:00-20:00', 'addr:housenumber': '6355', 'website': 'http://burnaby.rcmp-grc.gc.ca/', 'addr:street': 'Deer Lake Avenue', 'phone': '+1-604-646-9999'}",2020-01-09T02:05:39.000-08:00
"{'building': 'GIlmore Elementary School', 'road': 'Triumph Street', 'neighbourhood': 'Burnaby Heights', 'city': 'Burnaby', 'municipality': 'District of North Vancouver', 'county': 'Metro Vancouver Regional District', 'state': 'British Columbia', 'postcode': 'V5C 4P5', 'country': 'Canada', 'country_code': 'ca'}",public_bookcase,Burnaby,49.283671999999996,-123.01383729999999,,{'description': 'doorless'},2020-06-12T01:53:33.000-07:00
"{'road': 'Triumph Street', 'neighbourhood': 'Burnaby Heights', 'city': 'Burnaby', 'municipality': 'District of North Vancouver', 'county': 'Metro Vancouver Regional District', 'state': 'British Columbia', 'postcode': 'V5C 4P5', 'country': 'Canada', 'country_code': 'ca'}",public_bookcase,Burnaby,49.283892,-123.02177749999998,,{},2020-06-12T01:34:43.000-07:00
"{'house_number': '5675', 'road': 'Neville Street', 'neighbourhood': 'Fairways at Nelson', 'city': 'Burnaby', 'county': 'Metro Vancouver Regional District', 'state': 'British Columbia', 'postcode': 'V5J 4K0', 'country': 'Canada', 'country_code': 'ca'}",public_bookcase,Burnaby,49.21394520000001,-122.9811246,,{},2020-06-28T01:51:04.000-07:00
"{'amenity': 'Trans Canada Trail Pavillion', 'road': 'Trans Canada Trail', 'city': 'Burnaby', 'municipality': 'District of North Vancouver', 'county': 'Metro Vancouver Regional District', 'state': 'British Columbia', 'postcode': 'V5A 1E7', 'country': 'Canada', 'country_code': 'ca'}",shelter,Burnaby,49.2805577,-122.9349394,Trans Canada Trail Pavillion,{'tourism': 'information'},2013-01-20T03:38:19.000-08:00
"{'road': 'Canada Way', 'neighbourhood': 'Discovery Park', 'city': 'Burnaby', 'municipality': 'District of North Vancouver', 'county': 'Metro Vancouver Regional District', 'state': 'British Columbia', 'postcode': 'V5G 3H4', 'country': 'Canada', 'country_code': 'ca'}",shelter,Burnaby,49.2544014,-123.0058017,,{'shelter_type': 'gazebo'},2019-12-11T04:07:12.000-08:00
"{'road': 'Boundary Road', 'city_district': 'Killarney', 'city': 'Burnaby', 'county': 'Metro Vancouver Regional District', 'state': 'British Columbia', 'postcode': 'V5S 4B3', 'country': 'Canada', 'country_code': 'ca'}",shelter,Burnaby,49.2013565,-123.02346770000001,,{'shelter_type': 'gazebo'},2016-08-18T23:19:33.000-07:00
"{'road': 'Canada Way', 'neighbourhood': 'Discovery Park', 'city': 'Burnaby', 'municipality': 'District of North Vancouver', 'county': 'Metro Vancouver Regional District', 'state': 'British Columbia', 'postcode': 'V5G 3H4', 'country': 'Canada', 'country_code': 'ca'}",shelter,Burnaby,49.2544046,-123.00555779999999,,{'shelter_type': 'gazebo'},2019-10-19T00:37:26.000-07:00
"{'amenity': 'Royal Canadian Legion - Branch 83 (South Burnaby)', 'house_number': '5289', 'road': 'Grimmer Street', 'city': 'Burnaby', 'county': 'Metro Vancouver Regional District', 'state': 'British Columbia', 'postcode': 'V5J 4R9', 'country': 'Canada', 'country_code': 'ca'}",social_centre,Burnaby,49.223681400000004,-122.98795679999999,Royal Canadian Legion - Branch 83 (South Burnaby),"{'addr:housenumber': '5289', 'addr:street': 'Grimmer Street', 'phone': '+1-604-568-2911'}",2019-09-18T05:09:23.000-07:00
"{'amenity': 'Shell', 'house_number': '4505', 'road': 'Canada Way', 'neighbourhood': 'Discovery Park', 'city': 'Burnaby', 'municipality': 'District of North Vancouver', 'county': 'Metro Vancouver Regional District', 'state': 'British Columbia', 'postcode': 'V5G 3H4', 'country': 'Canada', 'country_code': 'ca'}",telephone,Burnaby,49.25512910000001,-123.0039852,,{'operator': 'Telus'},2013-04-14T03:19:43.000-07:00
"{'amenity': 'Apoteka Pharmacy', 'house_number': '7487', 'road': 'Edmonds Street', 'neighbourhood': 'Eastburn', 'city': 'Burnaby', 'county': 'Metro Vancouver Regional District', 'state': 'British Columbia', 'postcode': 'V3N 1B6', 'country': 'Canada', 'country_code': 'ca'}",telephone,Burnaby,49.2216289,-122.9457915,,{'operator': 'Telus'},2012-03-17T06:52:37.000-07:00
"{'shop': 'Circle K', 'road': 'Hastings Street', 'neighbourhood': 'Brentwood Park', 'city': 'Burnaby', 'municipality': 'District of North Vancouver', 'county': 'Metro Vancouver Regional District', 'state': 'British Columbia', 'postcode': 'V5B 1R7', 'country': 'Canada', 'country_code': 'ca'}",telephone,Burnaby,49.28058,-122.98112520000001,,{},2009-09-03T19:03:16.000-07:00
"{'building': 'NE 1', 'road': 'Smith Street', 'neighbourhood': 'Discovery Park', 'city': 'Burnaby', 'municipality': 'District of North Vancouver', 'county': 'Metro Vancouver Regional District', 'state': 'British Columbia', 'postcode': 'V5G 3H4', 'country': 'Canada', 'country_code': 'ca'}",telephone,Burnaby,49.2542373,-123.00096129999999,TDD Phone,{'note': 'Telephone Device for the Deaf'},2010-08-22T05:34:58.000-07:00
"{'building': 'Burnaby Lake Rowing Pavilion', 'road': 'Roberts Street', 'city': 'Burnaby', 'municipality': 'District of North Vancouver', 'county': 'Metro Vancouver Regional District', 'state': 'British Columbia', 'postcode': 'V5E 2S9', 'country': 'Canada', 'country_code': 'ca'}",telephone,Burnaby,49.2453001,-122.95890790000001,,{'fee': 'yes'},2019-10-14T19:26:48.000-07:00
"{'house_number': '7880', 'road': '6th Street', 'city': 'Burnaby', 'county': 'Metro Vancouver Regional District', 'state': 'British Columbia', 'postcode': 'V3N 3N4', 'country': 'Canada', 'country_code': 'ca'}",telephone,Burnaby,49.2193008,-122.9277922,,{'operator': 'Telus'},2013-10-04T17:14:46.000-07:00
"{'building': 'Cilcotin Residence', 'road': 'Residence Lane', 'city': 'Burnaby', 'county': 'Metro Vancouver Regional District', 'state': 'British Columbia', 'postcode': 'V5A 1E7', 'country': 'Canada', 'country_code': 'ca'}",telephone,Burnaby,49.280255600000004,-122.92889380000001,,{},2009-03-26T04:52:17.000-07:00
"{'amenity': 'Burnaby City Hall', 'house_number': '4949', 'road': 'Canada Way', 'city': 'Burnaby', 'municipality': 'District of North Vancouver', 'county': 'Metro Vancouver Regional District', 'state': 'British Columbia', 'postcode': 'V5G 1M2', 'country': 'Canada', 'country_code': 'ca'}",townhall,Burnaby,49.2431999,-122.9724754,,"{'addr:province': 'BC', 'addr:housenumber': '4949', 'addr:country': 'CA', 'addr:street': 'Canada Way', 'addr:postcode': 'V5G 1M2', 'townhall:type': 'city', 'addr:city': 'burnaby'}",2020-03-19T17:53:47.000-07:00
"{'amenity': 'Metro Vancouver', 'house_number': '4730', 'road': 'Kingsway', 'neighbourhood': 'Metrotown', 'city': 'Burnaby', 'county': 'Metro Vancouver Regional District', 'state': 'British Columbia', 'postcode': 'V5H 2B3', 'country': 'Canada', 'country_code': 'ca'}",townhall,Burnaby,49.2252941,-123.00115579999999,Metro Vancouver,"{'addr:housenumber': '4730', 'alt_name': 'Metro Vancouver Regional District', 'website': 'http://www.metrovancouver.org/', 'old_name': 'Greater Vancouver Regional District', 'phone': '+1-604-432-6200', 'addr:street': 'Kingsway', 'office': 'government', 'addr:city': 'Burnaby'}",2018-06-20T15:09:53.000-07:00
"{'road': 'Still Creek Drive', 'city': 'Burnaby', 'municipality': 'District of North Vancouver', 'county': 'Metro Vancouver Regional District', 'state': 'British Columbia', 'postcode': 'V5C 5L6', 'country': 'Canada', 'country_code': 'ca'}",trolley_bay,Burnaby,49.261238299999995,-123.0008313,,{},2018-08-26T04:32:44.000-07:00
"{'house_number': '4500', 'road': 'Still Creek Drive', 'city': 'Burnaby', 'municipality': 'District of North Vancouver', 'county': 'Metro Vancouver Regional District', 'state': 'British Columbia', 'postcode': 'V5C 0E5', 'country': 'Canada', 'country_code': 'ca'}",trolley_bay,Burnaby,49.2612433,-122.99955520000002,,{},2018-08-26T04:32:44.000-07:00
"{'house_number': '4500', 'road': 'Still Creek Drive', 'city': 'Burnaby', 'municipality': 'District of North Vancouver', 'county': 'Metro Vancouver Regional District', 'state': 'British Columbia', 'postcode': 'V5C 0E5', 'country': 'Canada', 'country_code': 'ca'}",trolley_bay,Burnaby,49.2611859,-122.99928670000001,,{},2018-08-26T04:32:43.000-07:00
"{'house_number': '4500', 'road': 'Still Creek Drive', 'city': 'Burnaby', 'municipality': 'District of North Vancouver', 'county': 'Metro Vancouver Regional District', 'state': 'British Columbia', 'postcode': 'V5C 0E5', 'country': 'Canada', 'country_code': 'ca'}",trolley_bay,Burnaby,49.2597797,-123.0008361,,{},2018-08-26T04:32:43.000-07:00
"{'house_number': '4500', 'road': 'Still Creek Drive', 'city': 'Burnaby', 'municipality': 'District of North Vancouver', 'county': 'Metro Vancouver Regional District', 'state': 'British Columbia', 'postcode': 'V5C 0E5', 'country': 'Canada', 'country_code': 'ca'}",trolley_bay,Burnaby,49.2605002,-123.0008312,,{},2018-08-26T04:32:43.000-07:00
"{'house_number': '4500', 'road': 'Still Creek Drive', 'city': 'Burnaby', 'municipality': 'District of North Vancouver', 'county': 'Metro Vancouver Regional District', 'state': 'British Columbia', 'postcode': 'V5C 0E5', 'country': 'Canada', 'country_code': 'ca'}",trolley_bay,Burnaby,49.260871,-123.0008326,,{},2018-08-26T04:32:42.000-07:00
"{'house_number': '4500', 'road': 'Still Creek Drive', 'city': 'Burnaby', 'municipality': 'District of North Vancouver', 'county': 'Metro Vancouver Regional District', 'state': 'British Columbia', 'postcode': 'V5C 0E5', 'country': 'Canada', 'country_code': 'ca'}",trolley_bay,Burnaby,49.2601288,-123.00083799999999,,{},2018-08-26T04:32:44.000-07:00
"{'road': 'Neptune Crescent', 'residential': 'Norman Bethune Housing Co-Op', 'city': 'Burnaby', 'county': 'Metro Vancouver Regional District', 'state': 'British Columbia', 'postcode': 'V3J 7X5', 'country': 'Canada', 'country_code': 'ca'}",waste_disposal,Burnaby,49.2588967,-122.90955359999998,,{},2016-04-14T06:28:00.000-07:00
"{'road': 'Corona Drive', 'neighbourhood': 'Sullivan Heights', 'city': 'Burnaby', 'county': 'Metro Vancouver Regional District', 'state': 'British Columbia', 'postcode': 'V3J 7X5', 'country': 'Canada', 'country_code': 'ca'}",waste_disposal,Burnaby,49.2583435,-122.9091929,,{},2016-04-14T06:28:00.000-07:00
"{'road': 'Joffre Avenue', 'neighbourhood': 'Suncrest', 'city': 'Burnaby', 'county': 'Metro Vancouver Regional District', 'state': 'British Columbia', 'postcode': 'V5J 1Z3', 'country': 'Canada', 'country_code': 'ca'}",waste_disposal,Burnaby,49.21700070000001,-123.02050020000001,,{},2018-08-15T22:43:06.000-07:00
"{'shop': 'Metropolis at Metrotown', 'house_number': '4700', 'road': 'Kingsway', 'neighbourhood': 'Metrotown', 'city': 'Burnaby', 'county': 'Metro Vancouver Regional District', 'state': 'British Columbia', 'postcode': 'V5H 4T6', 'country': 'Canada', 'country_code': 'ca'}",waste_disposal,Burnaby,49.22563020000001,-122.9974049,,{},2017-03-22T04:36:03.000-07:00
"{'shop': 'Metropolis at Metrotown', 'house_number': '4700', 'road': 'Kingsway', 'neighbourhood': 'Metrotown', 'city': 'Burnaby', 'county': 'Metro Vancouver Regional District', 'state': 'British Columbia', 'postcode': 'V5H 4T6', 'country': 'Canada', 'country_code': 'ca'}",waste_disposal,Burnaby,49.22601160000001,-122.99708970000002,,{},2017-03-22T04:35:29.000-07:00
"{'shop': 'Metropolis at Metrotown', 'house_number': '4700', 'road': 'Kingsway', 'neighbourhood': 'Metrotown', 'city': 'Burnaby', 'county': 'Metro Vancouver Regional District', 'state': 'British Columbia', 'postcode': 'V5H 4T6', 'country': 'Canada', 'country_code': 'ca'}",waste_disposal,Burnaby,49.2257284,-122.9986324,,{},2017-03-22T04:35:22.000-07:00
"{'house_number': '4700', 'road': 'Kingsway', 'neighbourhood': 'Metrotown', 'city': 'Burnaby', 'county': 'Metro Vancouver Regional District', 'state': 'British Columbia', 'postcode': 'V5H 2C3', 'country': 'Canada', 'country_code': 'ca'}",waste_disposal,Burnaby,49.226154,-122.9989643,,{},2017-03-22T04:35:19.000-07:00
"{'highway': 'Patterson Avenue (SB) at Victory Street', 'road': 'Patterson Avenue', 'city': 'Burnaby', 'county': 'Metro Vancouver Regional District', 'state': 'British Columbia', 'postcode': 'V5H 2V6', 'country': 'Canada', 'country_code': 'ca'}",waste_disposal,Burnaby,49.2180327,-123.0139233,,{},2018-08-15T22:56:37.000-07:00
"{'amenity': 'Suncrest Elementary School', 'road': 'Rumble Urban Trail', 'neighbourhood': 'Suncrest', 'city': 'Burnaby', 'county': 'Metro Vancouver Regional District', 'state': 'British Columbia', 'postcode': 'V5J 1Z3', 'country': 'Canada', 'country_code': 'ca'}",waste_disposal,Burnaby,49.2176579,-123.0164037,,{},2018-08-15T22:52:29.000-07:00
"{'amenity': 'Suncrest Elementary School', 'road': 'Rumble Urban Trail', 'neighbourhood': 'Suncrest', 'city': 'Burnaby', 'county': 'Metro Vancouver Regional District', 'state': 'British Columbia', 'postcode': 'V5J 1Z3', 'country': 'Canada', 'country_code': 'ca'}",waste_disposal,Burnaby,49.2169448,-123.015976,,{},2018-08-15T22:53:03.000-07:00
"{'house_number': '5330', 'road': 'Broadway', 'city': 'Burnaby', 'municipality': 'District of North Vancouver', 'county': 'Metro Vancouver Regional District', 'state': 'British Columbia', 'postcode': 'V5B 2X7', 'country': 'Canada', 'country_code': 'ca'}",waste_disposal,Burnaby,49.2659769,-122.9856758,,"{'operator': 'Creekside Manor', 'access': 'private'}",2019-10-22T22:51:03.000-07:00
"{'house_number': '4700', 'road': 'Kingsway', 'neighbourhood': 'Metrotown', 'city': 'Burnaby', 'county': 'Metro Vancouver Regional District', 'state': 'British Columbia', 'postcode': 'V5H 2C3', 'country': 'Canada', 'country_code': 'ca'}",waste_disposal,Burnaby,49.22563579999999,-122.9978689,,{},2018-04-21T18:49:40.000-07:00
"{'shop': 'Metropolis at Metrotown', 'house_number': '4700', 'road': 'Kingsway', 'neighbourhood': 'Metrotown', 'city': 'Burnaby', 'county': 'Metro Vancouver Regional District', 'state': 'British Columbia', 'postcode': 'V5H 4T6', 'country': 'Canada', 'country_code': 'ca'}",waste_disposal,Burnaby,49.2256434,-122.99758200000001,,{},2018-04-21T18:49:40.000-07:00
"{'shop': 'Metropolis at Metrotown', 'house_number': '4700', 'road': 'Kingsway', 'neighbourhood': 'Metrotown', 'city': 'Burnaby', 'county': 'Metro Vancouver Regional District', 'state': 'British Columbia', 'postcode': 'V5H 4T6', 'country': 'Canada', 'country_code': 'ca'}",waste_disposal,Burnaby,49.2258617,-122.99827549999999,,{},2017-03-22T04:35:24.000-07:00
"{'shop': 'Metropolis at Metrotown', 'house_number': '4700', 'road': 'Kingsway', 'neighbourhood': 'Metrotown', 'city': 'Burnaby', 'county': 'Metro Vancouver Regional District', 'state': 'British Columbia', 'postcode': 'V5H 4T6', 'country': 'Canada', 'country_code': 'ca'}",waste_disposal,Burnaby,49.22568920000001,-122.9986793,,{},2017-09-03T06:59:30.000-07:00
"{'shop': 'Metropolis at Metrotown', 'house_number': '4700', 'road': 'Kingsway', 'neighbourhood': 'Metrotown', 'city': 'Burnaby', 'county': 'Metro Vancouver Regional District', 'state': 'British Columbia', 'postcode': 'V5H 4T6', 'country': 'Canada', 'country_code': 'ca'}",waste_disposal,Burnaby,49.2265512,-122.99822920000001,,{},2018-04-21T18:52:04.000-07:00
"{'shop': 'Metropolis at Metrotown', 'house_number': '4700', 'road': 'Kingsway', 'neighbourhood': 'Metrotown', 'city': 'Burnaby', 'county': 'Metro Vancouver Regional District', 'state': 'British Columbia', 'postcode': 'V5H 4T6', 'country': 'Canada', 'country_code': 'ca'}",waste_disposal,Burnaby,49.226445700000006,-122.9983322,,{},2018-04-21T18:52:04.000-07:00
"{'house_number': '4700', 'road': 'Kingsway', 'neighbourhood': 'Metrotown', 'city': 'Burnaby', 'county': 'Metro Vancouver Regional District', 'state': 'British Columbia', 'postcode': 'V5H 2C3', 'country': 'Canada', 'country_code': 'ca'}",waste_disposal,Burnaby,49.22546420000001,-122.9993035,,{},2017-09-03T06:59:33.000-07:00
"{'shop': 'Lougheed Town Centre', 'road': 'Truck Loading Zone', 'neighbourhood': 'Sullivan Heights', 'city': 'Burnaby', 'county': 'Metro Vancouver Regional District', 'state': 'British Columbia', 'postcode': 'V3J 1N0', 'country': 'Canada', 'country_code': 'ca'}",waste_disposal,Burnaby,49.2507602,-122.89627040000002,,{},2017-03-13T04:15:28.000-07:00
"{'house_number': '9855', 'road': 'Austin Avenue', 'neighbourhood': 'Sullivan Heights', 'city': 'Burnaby', 'county': 'Metro Vancouver Regional District', 'state': 'British Columbia', 'postcode': 'V3J 1N7', 'country': 'Canada', 'country_code': 'ca'}",waste_disposal,Burnaby,49.2514409,-122.89674029999999,,{},2017-03-13T04:14:51.000-07:00
"{'house_number': '9855', 'road': 'Austin Avenue', 'neighbourhood': 'Sullivan Heights', 'city': 'Burnaby', 'county': 'Metro Vancouver Regional District', 'state': 'British Columbia', 'postcode': 'V3J 1N7', 'country': 'Canada', 'country_code': 'ca'}",waste_disposal,Burnaby,49.2506174,-122.8966121,,{},2017-03-13T04:15:36.000-07:00
"{'house_number': '9855', 'road': 'Austin Avenue', 'neighbourhood': 'Sullivan Heights', 'city': 'Burnaby', 'county': 'Metro Vancouver Regional District', 'state': 'British Columbia', 'postcode': 'V3J 1N7', 'country': 'Canada', 'country_code': 'ca'}",waste_disposal,Burnaby,49.251256,-122.8957356,,{},2017-03-13T04:14:22.000-07:00
"{'house_number': '4700', 'road': 'Kingsway', 'neighbourhood': 'Metrotown', 'city': 'Burnaby', 'county': 'Metro Vancouver Regional District', 'state': 'British Columbia', 'postcode': 'V5H 2B3', 'country': 'Canada', 'country_code': 'ca'}",waste_disposal,Burnaby,49.2266806,-123.0014731,,{},2017-03-12T06:13:07.000-07:00
"{'house_number': '4700', 'road': 'Kingsway', 'neighbourhood': 'Metrotown', 'city': 'Burnaby', 'county': 'Metro Vancouver Regional District', 'state': 'British Columbia', 'postcode': 'V5H 2C3', 'country': 'Canada', 'country_code': 'ca'}",waste_disposal,Burnaby,49.2252881,-122.99948429999999,,{'level': '0'},2019-01-26T04:57:37.000-08:00
"{'house_number': '4700', 'road': 'Kingsway', 'neighbourhood': 'Metrotown', 'city': 'Burnaby', 'county': 'Metro Vancouver Regional District', 'state': 'British Columbia', 'postcode': 'V5H 2B3', 'country': 'Canada', 'country_code': 'ca'}",waste_disposal,Burnaby,49.2259129,-123.00167330000001,,{},2017-03-12T06:13:21.000-07:00
"{'shop': 'Metropolis at Metrotown', 'house_number': '4700', 'road': 'Kingsway', 'neighbourhood': 'Metrotown', 'city': 'Burnaby', 'county': 'Metro Vancouver Regional District', 'state': 'British Columbia', 'postcode': 'V5H 4T6', 'country': 'Canada', 'country_code': 'ca'}",waste_disposal,Burnaby,49.225629100000006,-122.998108,,{},2017-09-03T06:59:25.000-07:00
"{'shop': 'Metropolis at Metrotown', 'house_number': '4700', 'road': 'Kingsway', 'neighbourhood': 'Metrotown', 'city': 'Burnaby', 'county': 'Metro Vancouver Regional District', 'state': 'British Columbia', 'postcode': 'V5H 4T6', 'country': 'Canada', 'country_code': 'ca'}",waste_disposal,Burnaby,49.225806,-123.00192309999998,,{},2017-03-12T06:13:27.000-07:00
"{'amenity': 'Cineplex Cinemas Metropolis', 'house_number': '4700', 'road': 'Kingsway', 'neighbourhood': 'Metrotown', 'city': 'Burnaby', 'county': 'Metro Vancouver Regional District', 'state': 'British Columbia', 'postcode': 'V5H 4M1', 'country': 'Canada', 'country_code': 'ca'}",waste_disposal,Burnaby,49.2275573,-123.00063359999999,,{},2018-04-21T18:56:29.000-07:00
"{'house_number': '4700', 'road': 'Kingsway', 'neighbourhood': 'Metrotown', 'city': 'Burnaby', 'county': 'Metro Vancouver Regional District', 'state': 'British Columbia', 'postcode': 'V5H 2B3', 'country': 'Canada', 'country_code': 'ca'}",waste_disposal,Burnaby,49.2263063,-123.002394,,{'level': '1'},2017-09-03T07:10:41.000-07:00
"{'house_number': '4700', 'road': 'Kingsway', 'neighbourhood': 'Metrotown', 'city': 'Burnaby', 'county': 'Metro Vancouver Regional District', 'state': 'British Columbia', 'postcode': 'V5H 2C3', 'country': 'Canada', 'country_code': 'ca'}",waste_disposal,Burnaby,49.22676060000001,-122.9980183,,{},2018-04-21T18:52:04.000-07:00
"{'house_number': '4700', 'road': 'Kingsway', 'neighbourhood': 'Metrotown', 'city': 'Burnaby', 'county': 'Metro Vancouver Regional District', 'state': 'British Columbia', 'postcode': 'V5H 4T6', 'country': 'Canada', 'country_code': 'ca'}",waste_disposal,Burnaby,49.2256699,-122.9964104,,{},2017-07-15T03:44:29.000-07:00
"{'shop': 'Metropolis at Metrotown', 'house_number': '4700', 'road': 'Kingsway', 'neighbourhood': 'Metrotown', 'city': 'Burnaby', 'county': 'Metro Vancouver Regional District', 'state': 'British Columbia', 'postcode': 'V5H 4T6', 'country': 'Canada', 'country_code': 'ca'}",waste_disposal,Burnaby,49.2256468,-122.9991006,,{},2017-09-03T06:59:33.000-07:00
"{'shop': 'Metropolis at Metrotown', 'house_number': '4700', 'road': 'Kingsway', 'neighbourhood': 'Metrotown', 'city': 'Burnaby', 'county': 'Metro Vancouver Regional District', 'state': 'British Columbia', 'postcode': 'V5H 4T6', 'country': 'Canada', 'country_code': 'ca'}",waste_disposal,Burnaby,49.2260084,-122.9972332,,{},2017-03-22T04:35:30.000-07:00
"{'amenity': 'CIBC', 'road': 'Kingsway', 'neighbourhood': 'Metrotown', 'city': 'Burnaby', 'county': 'Metro Vancouver Regional District', 'state': 'British Columbia', 'postcode': 'V5H 4T6', 'country': 'Canada', 'country_code': 'ca'}",waste_disposal,Burnaby,49.22777429999999,-122.9971919,,{},2017-03-20T15:56:07.000-07:00
"{'amenity': 'Burnaby North Secondary School', 'road': 'Trans Canada Trail', 'city': 'Burnaby', 'municipality': 'District of North Vancouver', 'county': 'Metro Vancouver Regional District', 'state': 'British Columbia', 'postcode': 'V5B 1R8', 'country': 'Canada', 'country_code': 'ca'}",drinking_water,Burnaby,49.2784434,-122.97547069999999,,{},2018-04-08T02:20:43.000-07:00
"{'leisure': 'MacPherson Outdoor Pool', 'road': 'Rumble Urban Trail', 'city': 'Burnaby', 'county': 'Metro Vancouver Regional District', 'state': 'British Columbia', 'postcode': 'V5J 2B7', 'country': 'Canada', 'country_code': 'ca'}",drinking_water,Burnaby,49.2150043,-122.98414679999999,,{},2018-07-22T23:07:11.000-07:00
"{'building': 'Deer Lake Boat Rentals', 'road': 'Sperling Avenue', 'neighbourhood': 'Buckingham Heights', 'city': 'Burnaby', 'county': 'Metro Vancouver Regional District', 'state': 'British Columbia', 'postcode': 'V5E 3N1', 'country': 'Canada', 'country_code': 'ca'}",drinking_water,Burnaby,49.2353679,-122.96521270000001,,{},2015-05-03T08:15:40.000-07:00
"{'road': 'ramp', 'city': 'Burnaby', 'municipality': 'District of North Vancouver', 'county': 'Metro Vancouver Regional District', 'state': 'British Columbia', 'postcode': 'V3J 3Z9', 'country': 'Canada', 'country_code': 'ca'}",drinking_water,Burnaby,49.2533807,-122.96990919999999,,{},2015-05-03T08:00:07.000-07:00
"{'road': 'ramp', 'city': 'Burnaby', 'municipality': 'District of North Vancouver', 'county': 'Metro Vancouver Regional District', 'state': 'British Columbia', 'postcode': 'V3J 3Z9', 'country': 'Canada', 'country_code': 'ca'}",drinking_water,Burnaby,49.2528817,-122.970051,,{},2015-05-03T08:00:07.000-07:00
"{'amenity': 'McGill Library', 'house_number': '4595', 'road': 'Albert Street', 'neighbourhood': 'Capitol Hill', 'city': 'Burnaby', 'municipality': 'District of North Vancouver', 'county': 'Metro Vancouver Regional District', 'state': 'British Columbia', 'postcode': 'V5C 2G6', 'country': 'Canada', 'country_code': 'ca'}",drinking_water,Burnaby,49.282450399999995,-123.00093500000001,,{},2015-12-12T23:50:08.000-08:00
"{'road': 'Oakalla Steps', 'city': 'Burnaby', 'county': 'Metro Vancouver Regional District', 'state': 'British Columbia', 'postcode': 'V5H 2X5', 'country': 'Canada', 'country_code': 'ca'}",drinking_water,Burnaby,49.23069470000001,-122.9878838,,"{'access': 'yes', 'bottle': 'no'}",2020-03-01T08:05:13.000-08:00
"{'road': 'Patrick Street', 'neighbourhood': 'Fairways at Nelson', 'city': 'Burnaby', 'county': 'Metro Vancouver Regional District', 'state': 'British Columbia', 'postcode': 'V5J 4K0', 'country': 'Canada', 'country_code': 'ca'}",drinking_water,Burnaby,49.2085451,-122.9917594,,{},2020-04-22T04:21:37.000-07:00
"{'road': 'Bank Street', 'city': 'Burnaby', 'county': 'Metro Vancouver Regional District', 'state': 'British Columbia', 'postcode': 'V3N 4Z4', 'country': 'Canada', 'country_code': 'ca'}",drinking_water,Burnaby,49.2114208,-122.96790800000001,,{},2020-04-18T21:55:43.000-07:00
"{'house_number': '100', 'road': 'Centennial Way', 'city': 'Burnaby', 'municipality': 'District of North Vancouver', 'county': 'Metro Vancouver Regional District', 'state': 'British Columbia', 'postcode': 'V5A 1E7', 'country': 'Canada', 'country_code': 'ca'}",drinking_water,Burnaby,49.283032500000004,-122.9348243,,{},2015-05-04T09:32:31.000-07:00
"{'highway': 'North Esmond Ave (SB) at McGill St', 'road': 'North Esmond Avenue', 'neighbourhood': 'Burnaby Heights', 'city': 'Burnaby', 'municipality': 'District of North Vancouver', 'county': 'Metro Vancouver Regional District', 'state': 'British Columbia', 'postcode': 'V5C 2H5', 'country': 'Canada', 'country_code': 'ca'}",drinking_water,Burnaby,49.2879882,-123.020379,,{},2015-05-05T12:48:16.000-07:00
"{'amenity': 'Fire Station 3', 'house_number': '6511', 'road': 'Marlborough Avenue', 'neighbourhood': 'Metrotown', 'city': 'Burnaby', 'county': 'Metro Vancouver Regional District', 'state': 'British Columbia', 'postcode': 'V5H 3L9', 'country': 'Canada', 'country_code': 'ca'}",drinking_water,Burnaby,49.224981400000004,-122.99238270000001,,{},2019-08-24T18:43:44.000-07:00
"{'road': 'Trail of Hope', 'city': 'Burnaby', 'county': 'Metro Vancouver Regional District', 'state': 'British Columbia', 'postcode': 'V5H 1Y4', 'country': 'Canada', 'country_code': 'ca'}",drinking_water,Burnaby,49.2281361,-123.02033090000002,,{},2017-11-19T05:29:14.000-08:00
"{'shop': ""Kim's Mart"", 'house_number': '6837', 'road': 'Station Hill Drive', 'neighbourhood': 'Stride Avenue', 'city': 'Burnaby', 'county': 'Metro Vancouver Regional District', 'state': 'British Columbia', 'postcode': 'V3N 5A4', 'country': 'Canada', 'country_code': 'ca'}",drinking_water,Burnaby,49.2117146,-122.9599217,,{},2010-10-10T04:41:46.000-07:00
"{'leisure': 'Bell Park', 'road': 'Bell Avenue', 'neighbourhood': 'Sullivan Heights', 'city': 'Burnaby', 'county': 'Metro Vancouver Regional District', 'state': 'British Columbia', 'postcode': 'V3J 1M7', 'country': 'Canada', 'country_code': 'ca'}",drinking_water,Burnaby,49.252041299999995,-122.90473329999999,,{},2015-07-26T04:48:16.000-07:00
"{'road': 'BC Parkway', 'city': 'Burnaby', 'county': 'Metro Vancouver Regional District', 'state': 'British Columbia', 'postcode': 'V5J 1K4', 'country': 'Canada', 'country_code': 'ca'}",drinking_water,Burnaby,49.2149195,-122.9722977,,{},2011-09-12T19:01:49.000-07:00
"{'city': 'Burnaby', 'county': 'Metro Vancouver Regional District', 'state': 'British Columbia', 'postcode': 'V5A 0A1', 'country': 'Canada', 'country_code': 'ca'}",drinking_water,Burnaby,49.2789,-122.9082547,,{},2017-03-08T20:11:51.000-08:00
"{'road': 'Gilmore Avenue', 'city': 'Burnaby', 'municipality': 'District of North Vancouver', 'county': 'Metro Vancouver Regional District', 'state': 'British Columbia', 'postcode': 'V5C 4T7', 'country': 'Canada', 'country_code': 'ca'}",drinking_water,Burnaby,49.2628254,-123.0138119,,{},2015-09-18T06:50:53.000-07:00
"{'leisure': 'zipline', 'road': 'Carleton Avenue', 'city': 'Burnaby', 'municipality': 'District of North Vancouver', 'county': 'Metro Vancouver Regional District', 'state': 'British Columbia', 'postcode': 'V5C 6R9', 'country': 'Canada', 'country_code': 'ca'}",drinking_water,Burnaby,49.271851899999994,-123.0124952,,{},2015-09-18T22:25:22.000-07:00
"{'leisure': 'zipline', 'road': 'Carleton Avenue', 'city': 'Burnaby', 'municipality': 'District of North Vancouver', 'county': 'Metro Vancouver Regional District', 'state': 'British Columbia', 'postcode': 'V5C 6R9', 'country': 'Canada', 'country_code': 'ca'}",drinking_water,Burnaby,49.2730648,-123.0122672,,{},2015-09-18T22:25:22.000-07:00
"{'house_number': '7266', 'road': 'Mountbatten Street', 'city': 'Burnaby', 'county': 'Metro Vancouver Regional District', 'state': 'British Columbia', 'postcode': 'V5J 0C6', 'country': 'Canada', 'country_code': 'ca'}",drinking_water,Burnaby,49.193788299999994,-122.9997851,,{},2016-08-18T23:09:45.000-07:00
"{'road': 'Fraser Foreshore Park Trail', 'city': 'Burnaby', 'county': 'Metro Vancouver Regional District', 'state': 'British Columbia', 'postcode': 'V5J 4Z3', 'country': 'Canada', 'country_code': 'ca'}",drinking_water,Burnaby,49.191776399999995,-122.9989134,,{},2016-08-18T22:55:17.000-07:00
"{'road': 'Fraser Foreshore Park Trail', 'city': 'Burnaby', 'county': 'Metro Vancouver Regional District', 'state': 'British Columbia', 'postcode': 'V5J 4Z3', 'country': 'Canada', 'country_code': 'ca'}",drinking_water,Burnaby,49.187972200000004,-122.9942481,,{},2016-08-18T22:55:17.000-07:00
"{'road': 'Kensington Avenue', 'city': 'Burnaby', 'municipality': 'District of North Vancouver', 'county': 'Metro Vancouver Regional District', 'state': 'British Columbia', 'postcode': 'V5G 4E1', 'country': 'Canada', 'country_code': 'ca'}",drinking_water,Burnaby,49.2490284,-122.9657582,,{},2015-08-27T00:52:04.000-07:00
"{'road': 'Laurel Street', 'city': 'Burnaby', 'municipality': 'District of North Vancouver', 'county': 'Metro Vancouver Regional District', 'state': 'British Columbia', 'postcode': 'V5G 4N2', 'country': 'Canada', 'country_code': 'ca'}",drinking_water,Burnaby,49.2533634,-122.9712406,,{},2015-08-27T00:51:46.000-07:00
"{'building': 'Food Store', 'house_number': '4853', 'road': 'Imperial Street', 'neighbourhood': 'Metrotown', 'city': 'Burnaby', 'county': 'Metro Vancouver Regional District', 'state': 'British Columbia', 'postcode': 'V5J 1C4', 'country': 'Canada', 'country_code': 'ca'}",drinking_water,Burnaby,49.2220674,-122.99488190000001,,{},2018-09-16T21:53:05.000-07:00
"{'road': 'Patterson Avenue', 'city': 'Burnaby', 'county': 'Metro Vancouver Regional District', 'state': 'British Columbia', 'postcode': 'V5H 2V6', 'country': 'Canada', 'country_code': 'ca'}",drinking_water,Burnaby,49.2265213,-123.0129281,Drinking water tap,{},2012-07-10T04:34:43.000-07:00
"{'road': 'Cariboo Dam', 'city': 'Burnaby', 'county': 'Metro Vancouver Regional District', 'state': 'British Columbia', 'postcode': 'V5A 3H4', 'country': 'Canada', 'country_code': 'ca'}",drinking_water,Burnaby,49.24774160000001,-122.9165744,,{},2020-02-18T22:14:12.000-08:00
"{'leisure': 'Strech', 'road': 'BC Parkway', 'city': 'Burnaby', 'county': 'Metro Vancouver Regional District', 'state': 'British Columbia', 'postcode': 'V5H 1Y4', 'country': 'Canada', 'country_code': 'ca'}",drinking_water,Burnaby,49.23113,-123.0190866,,{},2014-04-18T21:36:45.000-07:00
"{'leisure': 'Baseball Field', 'road': 'Trans Canada Trail', 'city': 'Burnaby', 'municipality': 'District of North Vancouver', 'county': 'Metro Vancouver Regional District', 'state': 'British Columbia', 'postcode': 'V5B 1R8', 'country': 'Canada', 'country_code': 'ca'}",drinking_water,Burnaby,49.2792964,-122.97495249999999,,{},2015-04-09T23:07:52.000-07:00
"{'building': 'Cameron', 'house_number': '3399', 'road': 'Noel Drive', 'neighbourhood': 'Sullivan Heights', 'city': 'Burnaby', 'county': 'Metro Vancouver Regional District', 'state': 'British Columbia', 'postcode': 'V3J 1M7', 'country': 'Canada', 'country_code': 'ca'}",drinking_water,Burnaby,49.2535989,-122.9048482,,{},2017-09-04T21:52:23.000-07:00
"{'highway': 'Duthie Ave (SB) at Ridley Dr', 'road': 'Duthie Avenue', 'city': 'Burnaby', 'municipality': 'District of North Vancouver', 'county': 'Metro Vancouver Regional District', 'state': 'British Columbia', 'postcode': 'V5A 2S3', 'country': 'Canada', 'country_code': 'ca'}",drinking_water,Burnaby,49.2726472,-122.9538479,,{},2015-11-02T01:38:20.000-08:00
"{'building': 'picnic shelter', 'road': 'Beta Avenue', 'city': 'Burnaby', 'municipality': 'District of North Vancouver', 'county': 'Metro Vancouver Regional District', 'state': 'British Columbia', 'postcode': 'V5C 2C2', 'country': 'Canada', 'country_code': 'ca'}",drinking_water,Burnaby,49.2835714,-122.99784109999999,,{},2015-09-12T06:14:04.000-07:00
"{'leisure': 'Griffiths Memorial Playground', 'road': 'Beta Avenue', 'city': 'Burnaby', 'municipality': 'District of North Vancouver', 'county': 'Metro Vancouver Regional District', 'state': 'British Columbia', 'postcode': 'V5C 2C2', 'country': 'Canada', 'country_code': 'ca'}",drinking_water,Burnaby,49.285083,-122.9994826,,{},2015-09-12T06:14:04.000-07:00
"{'building': 'picnic shelter', 'road': 'Beta Avenue', 'city': 'Burnaby', 'municipality': 'District of North Vancouver', 'county': 'Metro Vancouver Regional District', 'state': 'British Columbia', 'postcode': 'V5C 2C2', 'country': 'Canada', 'country_code': 'ca'}",drinking_water,Burnaby,49.2839179,-122.99805559999999,,{},2015-09-12T06:14:03.000-07:00
"{'leisure': 'Burnaby North Lawn Bowling Club', 'road': 'Penzance Drive', 'city': 'Burnaby', 'municipality': 'District of North Vancouver', 'county': 'Metro Vancouver Regional District', 'state': 'British Columbia', 'postcode': 'V5C 2G6', 'country': 'Canada', 'country_code': 'ca'}",drinking_water,Burnaby,49.285064399999996,-123.0010037,,{},2015-11-04T04:02:12.000-08:00
"{'building': 'picnic shelter', 'road': 'Beta Avenue', 'city': 'Burnaby', 'municipality': 'District of North Vancouver', 'county': 'Metro Vancouver Regional District', 'state': 'British Columbia', 'postcode': 'V5C 2C2', 'country': 'Canada', 'country_code': 'ca'}",drinking_water,Burnaby,49.2839214,-122.9979215,,{},2015-09-12T06:14:05.000-07:00
