address,amenity,city,lat,lon,name,tags,timestamp
"{'shop': 'Tsawwassen Quay Market', 'road': 'Ferry Causeway', 'city': 'Delta', 'county': 'Metro Vancouver Regional District', 'state': 'British Columbia', 'postcode': 'V4M 2P3', 'country': 'Canada', 'country_code': 'ca'}",atm,Delta,49.0082934,-123.1300094,,"{'indoor': 'yes', 'brand': 'DC Bank'}",2019-02-04T00:35:48.000-08:00
"{'house_number': '7727', 'road': 'Beedie Road', 'suburb': 'Tilbury Island', 'city': 'Delta', 'county': 'Metro Vancouver Regional District', 'state': 'British Columbia', 'postcode': 'V4G 1A6', 'country': 'Canada', 'country_code': 'ca'}",charging_station,Delta,49.14646079999999,-123.0087301,,"{'access': 'yes', 'authentication:none': 'yes', 'fee': 'no', 'capacity': '2', 'voltage': '230'}",2020-05-19T04:11:53.000-07:00
"{'shop': 'Tsawwassen Mills', 'house_number': '5000', 'road': 'Canoe Pass Way', 'retail': 'Tsawwassen Commons', 'city': 'Delta', 'county': 'Metro Vancouver Regional District', 'state': 'British Columbia', 'postcode': 'V4E 0B3', 'country': 'Canada', 'country_code': 'ca'}",charging_station,Delta,49.0376956,-123.08874420000001,,"{'socket:type1': '2', 'operator': 'Flo', 'capacity': '2'}",2020-04-27T23:54:08.000-07:00
"{'shop': 'Tsawwassen Mills', 'house_number': '5000', 'road': 'Canoe Pass Way', 'retail': 'Tsawwassen Commons', 'city': 'Delta', 'county': 'Metro Vancouver Regional District', 'state': 'British Columbia', 'postcode': 'V4E 0B3', 'country': 'Canada', 'country_code': 'ca'}",charging_station,Delta,49.040500099999996,-123.0835209,,"{'socket:type1': '2', 'operator': 'Flo', 'capacity': '2'}",2020-04-27T23:54:08.000-07:00
"{'amenity': 'ChargePoint', 'road': 'Beedie Road', 'suburb': 'Tilbury Island', 'city': 'Delta', 'county': 'Metro Vancouver Regional District', 'state': 'British Columbia', 'postcode': 'V4G 1A6', 'country': 'Canada', 'country_code': 'ca'}",charging_station,Delta,49.1443218,-123.0148235,ChargePoint,"{'brand:wikidata': 'Q5176149', 'access': 'yes', 'brand': 'ChargePoint', 'brand:wikipedia': 'en:ChargePoint', 'capacity': '6'}",2020-05-26T23:16:02.000-07:00
"{'road': 'Savannah Trail', 'suburb': 'Boundary Bay', 'city_district': 'Tsawwassen', 'city': 'Delta', 'county': 'Metro Vancouver Regional District', 'state': 'British Columbia', 'postcode': 'V4L 1V1', 'country': 'Canada', 'country_code': 'ca'}",charging_station,Delta,49.0150469,-123.04161370000001,,{},2020-06-26T22:18:05.000-07:00
"{'house_number': '7727', 'road': 'Beedie Road', 'suburb': 'Tilbury Island', 'city': 'Delta', 'county': 'Metro Vancouver Regional District', 'state': 'British Columbia', 'postcode': 'V4G 1A6', 'country': 'Canada', 'country_code': 'ca'}",charging_station,Delta,49.14706339999999,-123.009018,,"{'access': 'yes', 'authentication:none': 'yes', 'fee': 'no', 'capacity': '2', 'voltage': '230'}",2020-05-19T04:11:53.000-07:00
"{'amenity': 'Tesla Supercharger', 'road': 'South Fraser Perimeter Road', 'city': 'Delta', 'county': 'Metro Vancouver Regional District', 'state': 'British Columbia', 'postcode': 'V4E 0B3', 'country': 'Canada', 'country_code': 'ca'}",charging_station,Delta,49.0380325,-123.0826676,Tesla Supercharger,"{'brand:wikidata': 'Q17089620', 'socket:tesla_supercharger:output': '120 kW', 'brand:wikipedia': 'en:Tesla Supercharger', 'brand': 'Tesla Supercharger', 'operator': 'Tesla', 'capacity': '12'}",2019-04-03T03:27:34.000-07:00
"{'shop': 'Tsawwassen Mills', 'house_number': '5000', 'road': 'Canoe Pass Way', 'retail': 'Tsawwassen Commons', 'city': 'Delta', 'county': 'Metro Vancouver Regional District', 'state': 'British Columbia', 'postcode': 'V4E 0B3', 'country': 'Canada', 'country_code': 'ca'}",charging_station,Delta,49.0394797,-123.0862077,,"{'socket:type1': '2', 'operator': 'Flo', 'capacity': '2'}",2020-04-27T23:54:08.000-07:00
"{'shop': 'Tsawwassen Mills', 'house_number': '5000', 'road': 'Canoe Pass Way', 'retail': 'Tsawwassen Commons', 'city': 'Delta', 'county': 'Metro Vancouver Regional District', 'state': 'British Columbia', 'postcode': 'V4E 0B3', 'country': 'Canada', 'country_code': 'ca'}",charging_station,Delta,49.0386,-123.081,,"{'socket:type1': '2', 'operator': 'Flo', 'capacity': '4'}",2020-04-27T23:54:08.000-07:00
"{'shop': 'Tsawwassen Mills', 'house_number': '5000', 'road': 'Canoe Pass Way', 'retail': 'Tsawwassen Commons', 'city': 'Delta', 'county': 'Metro Vancouver Regional District', 'state': 'British Columbia', 'postcode': 'V4E 0B3', 'country': 'Canada', 'country_code': 'ca'}",charging_station,Delta,49.0349,-123.0885,,"{'socket:type1': '2', 'operator': 'Flo', 'capacity': '2'}",2020-04-27T23:54:08.000-07:00
"{'shop': 'Tsawwassen Mills', 'house_number': '5000', 'road': 'Canoe Pass Way', 'retail': 'Tsawwassen Commons', 'city': 'Delta', 'county': 'Metro Vancouver Regional District', 'state': 'British Columbia', 'postcode': 'V4E 0B3', 'country': 'Canada', 'country_code': 'ca'}",charging_station,Delta,49.0371495,-123.0850223,,"{'operator': 'Flo', 'capacity': '2'}",2020-04-27T23:54:08.000-07:00
"{'shop': 'Tsawwassen Mills', 'house_number': '5000', 'road': 'Canoe Pass Way', 'retail': 'Tsawwassen Commons', 'city': 'Delta', 'county': 'Metro Vancouver Regional District', 'state': 'British Columbia', 'postcode': 'V4E 0B3', 'country': 'Canada', 'country_code': 'ca'}",charging_station,Delta,49.0375722,-123.08362659999999,,"{'socket:type1': '2', 'operator': 'Flo', 'capacity': '2'}",2020-04-27T23:54:08.000-07:00
"{'amenity': 'North Delta Medical Clinic', 'road': 'Scott Road', 'suburb': 'Kennedy', 'city_district': 'North Delta', 'city': 'Delta', 'county': 'Metro Vancouver Regional District', 'state': 'British Columbia', 'postcode': 'V3W 3J2', 'country': 'Canada', 'country_code': 'ca'}",clinic,Delta,49.1654689,-122.89093359999998,North Delta Medical Clinic,{'healthcare': 'clinic'},2019-09-28T08:09:19.000-07:00
"{'amenity': 'Dr. Bernstein', 'road': '80 Avenue', 'city_district': 'North Delta', 'city': 'Delta', 'county': 'Metro Vancouver Regional District', 'state': 'British Columbia', 'postcode': 'V3W 3N2', 'country': 'Canada', 'country_code': 'ca'}",clinic,Delta,49.1501118,-122.8925262,Dr. Bernstein,{'healthcare': 'clinic'},2020-06-07T04:33:34.000-07:00
"{'amenity': 'Travel Medicine & Vaccination Centre', 'road': 'Scott Road', 'suburb': 'Kennedy', 'city_district': 'North Delta', 'city': 'Delta', 'county': 'Metro Vancouver Regional District', 'state': 'British Columbia', 'postcode': 'V4C 6R1', 'country': 'Canada', 'country_code': 'ca'}",clinic,Delta,49.15297620000001,-122.8901216,Travel Medicine & Vaccination Centre,{'healthcare': 'clinic'},2020-06-07T05:19:25.000-07:00
"{'amenity': 'Snore MD', 'road': '52A Street', 'retail': 'Trenant Park Square', 'suburb': 'Ladner', 'city_district': 'Ladner', 'city': 'Delta', 'county': 'Metro Vancouver Regional District', 'state': 'British Columbia', 'postcode': 'V4K 1W4', 'country': 'Canada', 'country_code': 'ca'}",clinic,Delta,49.0914111,-123.0786659,Snore MD,{'healthcare': 'clinic'},2019-07-07T21:50:17.000-07:00
"{'amenity': 'Deltassist', 'road': 'Scott Road', 'suburb': 'Kennedy', 'city_district': 'North Delta', 'city': 'Delta', 'county': 'Metro Vancouver Regional District', 'state': 'British Columbia', 'postcode': 'V4C 7V4', 'country': 'Canada', 'country_code': 'ca'}",community_centre,Delta,49.1681125,-122.89065740000001,Deltassist,{'operator': 'Municipality of Delta'},2018-09-07T10:15:19.000-07:00
"{'amenity': ""Sara's"", 'road': 'Bridge Street', 'suburb': 'Ladner', 'city_district': 'Ladner', 'city': 'Delta', 'county': 'Metro Vancouver Regional District', 'state': 'British Columbia', 'postcode': 'V4K 2T8', 'country': 'Canada', 'country_code': 'ca'}",ice_cream,Delta,49.091498,-123.0845299,Sara's,{},2019-09-05T07:08:10.000-07:00
"{'amenity': ""Menchie's"", 'road': '74 Avenue', 'suburb': 'North Delta', 'city_district': 'North Delta', 'city': 'Delta', 'county': 'Metro Vancouver Regional District', 'state': 'British Columbia', 'postcode': 'V4C 6P5', 'country': 'Canada', 'country_code': 'ca'}",ice_cream,Delta,49.1374424,-122.8917347,Menchie's,"{'brand:wikidata': 'Q6816528', 'cuisine': 'frozen_yogurt', 'brand': ""Menchie's"", 'brand:wikipedia': ""en:Menchie's Frozen Yogurt""}",2019-06-26T07:37:24.000-07:00
"{'amenity': 'Ice Cream Shoppe', 'road': 'Westham Island Road', 'city': 'Delta', 'county': 'Metro Vancouver Regional District', 'state': 'British Columbia', 'postcode': 'V4K 3N2', 'country': 'Canada', 'country_code': 'ca'}",ice_cream,Delta,49.088273799999996,-123.14685130000001,Ice Cream Shoppe,{},2020-04-18T05:48:54.000-07:00
"{'shop': 'Tsawwassen Quay Market', 'road': 'Ferry Causeway', 'city': 'Delta', 'county': 'Metro Vancouver Regional District', 'state': 'British Columbia', 'postcode': 'V4M 2P3', 'country': 'Canada', 'country_code': 'ca'}",ice_cream,Delta,49.008503499999996,-123.12990420000001,On The Go Gelato,"{'cuisine': 'ice_cream', 'indoor': 'yes'}",2019-02-04T00:35:50.000-08:00
"{'amenity': 'Tsawwassen Library', 'road': 'Library Road', 'retail': 'Tsawwassen Town Centre Mall', 'suburb': 'Tsawwassen', 'city_district': 'Tsawwassen', 'city': 'Delta', 'county': 'Metro Vancouver Regional District', 'state': 'British Columbia', 'postcode': 'V4L 2B0', 'country': 'Canada', 'country_code': 'ca'}",library,Delta,49.0265835,-123.0710778,Tsawwassen Library,{},2019-08-18T11:22:44.000-07:00
"{'amenity': 'George Mackie Library', 'house_number': '8440', 'road': '112 Street', 'neighbourhood': 'Social Heart', 'suburb': 'North Delta', 'city_district': 'North Delta', 'city': 'Delta', 'county': 'Metro Vancouver Regional District', 'state': 'British Columbia', 'postcode': 'V4C 2L0', 'country': 'Canada', 'country_code': 'ca'}",library,Delta,49.156425899999995,-122.9118196,George Mackie Library,"{'addr:housenumber': '8440', 'addr:street': '112 Street'}",2017-05-30T02:34:35.000-07:00
"{'amenity': 'Ladner Pioneer Library', 'house_number': '4683', 'road': '51 Street', 'suburb': 'Ladner', 'city_district': 'Ladner', 'city': 'Delta', 'county': 'Metro Vancouver Regional District', 'state': 'British Columbia', 'postcode': 'V4K 1W0', 'country': 'Canada', 'country_code': 'ca'}",library,Delta,49.088052399999995,-123.0830061,Ladner Pioneer Library,"{'addr:housenumber': '4683', 'website': 'https://fvrl.bibliocommons.com/locations/LD', 'internet_access': 'wlan', 'phone': '+1-604-946-6215', 'opening_hours': 'Mo-Th 10:00-21:00; Fr-Sa 10:00-17:00; Su 11:00-17:00; PH off', 'addr:street': '51 Street', 'operator': 'Fraser Valley Regional Library', 'addr:city': 'Delta'}",2019-09-13T13:56:49.000-07:00
"{'building': 'North Delta Evangelical Free Church', 'road': '84 Avenue', 'neighbourhood': 'Social Heart', 'suburb': 'North Delta', 'city_district': 'North Delta', 'city': 'Delta', 'county': 'Metro Vancouver Regional District', 'state': 'British Columbia', 'postcode': 'V4C 2L7', 'country': 'Canada', 'country_code': 'ca'}",place_of_worship,Delta,49.155609999999996,-122.9095119,North Delta Evangelical Free Church,"{'addr:housenumber': '11300', 'addr:street': '84 Avenue', 'religion': 'christian'}",2017-05-30T03:16:43.000-07:00
"{'amenity': ""St. Stephen's United Church"", 'house_number': '9696', 'road': 'Ladner Trunk Road', 'city': 'Delta', 'county': 'Metro Vancouver Regional District', 'state': 'British Columbia', 'postcode': 'V4K 3N3', 'country': 'Canada', 'country_code': 'ca'}",place_of_worship,Delta,49.0918261,-122.9545369,St. Stephen's United Church,"{'addr:housenumber': '9696', 'website': 'https://www.ladnerunited.org/static_content.php?id=8', 'service_times': 'Su 10:00', 'addr:street': 'Ladner Trunk Road', 'addr:city': 'Delta', 'religion': 'united'}",2019-09-13T13:57:05.000-07:00
"{'house_number': '1710', 'road': '56 Street', 'city_district': 'Tsawwassen', 'city': 'Delta', 'county': 'Metro Vancouver Regional District', 'state': 'British Columbia', 'postcode': 'V4L 1J3', 'country': 'Canada', 'country_code': 'ca'}",place_of_worship,Delta,49.0350298,-123.0679521,,{'religion': 'christian'},2019-09-05T03:29:31.000-07:00
"{'amenity': 'All Saints Ladner Anglican Church', 'house_number': '4755', 'road': 'Arthur Drive', 'suburb': 'Ladner', 'city_district': 'Ladner', 'city': 'Delta', 'county': 'Metro Vancouver Regional District', 'state': 'British Columbia', 'postcode': 'V4K 2X7', 'country': 'Canada', 'country_code': 'ca'}",place_of_worship,Delta,49.089572499999996,-123.08197820000001,All Saints Ladner Anglican Church,"{'website': 'https://www.vancouver.anglican.ca', 'service_times': 'Su 8:30, Su 10:30', 'denomination': 'anglican', 'religion': 'christian'}",2019-06-23T00:36:43.000-07:00
"{'amenity': 'Saviour Lutheran Church', 'road': '47A Avenue', 'suburb': 'Ladner', 'city_district': 'Ladner', 'city': 'Delta', 'county': 'Metro Vancouver Regional District', 'state': 'British Columbia', 'postcode': 'V4K 3C9', 'country': 'Canada', 'country_code': 'ca'}",place_of_worship,Delta,49.0890526,-123.0658533,Saviour Lutheran Church,"{'denomination': 'lutheran', 'religion': 'christian'}",2019-06-23T00:36:43.000-07:00
"{'amenity': 'Ladner Baptist Church', 'road': 'Ladner Trunk Road', 'suburb': 'Ladner', 'city_district': 'Ladner', 'city': 'Delta', 'county': 'Metro Vancouver Regional District', 'state': 'British Columbia', 'postcode': 'V4K 1W4', 'country': 'Canada', 'country_code': 'ca'}",place_of_worship,Delta,49.0895514,-123.067012,Ladner Baptist Church,"{'website': 'http://www.ladnerbaptist.ca/', 'denomination': 'baptist', 'religion': 'christian'}",2019-06-23T00:36:43.000-07:00
"{'amenity': 'Sacred Heart', 'road': 'Arthur Drive', 'suburb': 'Ladner', 'city_district': 'Ladner', 'city': 'Delta', 'county': 'Metro Vancouver Regional District', 'state': 'British Columbia', 'postcode': 'V4K 1W4', 'country': 'Canada', 'country_code': 'ca'}",place_of_worship,Delta,49.0750325,-123.07785700000001,Sacred Heart,"{'toilets:wheelchair': 'yes', 'wheelchair': 'yes', 'religion': 'christian'}",2016-02-10T04:23:28.000-08:00
"{'amenity': 'Ladner United Church', 'house_number': '4960', 'road': '48 Avenue', 'suburb': 'Ladner', 'city_district': 'Ladner', 'city': 'Delta', 'county': 'Metro Vancouver Regional District', 'state': 'British Columbia', 'postcode': 'V4K 1V0', 'country': 'Canada', 'country_code': 'ca'}",place_of_worship,Delta,49.0899671,-123.08628759999999,Ladner United Church,"{'addr:housenumber': '4960', 'website': 'https://www.ladnerunited.org/', 'addr:street': '48 Avenue', 'denomination': 'united', 'religion': 'christian'}",2019-07-06T08:29:15.000-07:00
"{'amenity': 'Delta Manor', 'road': '57 Street', 'suburb': 'Ladner', 'city_district': 'Ladner', 'city': 'Delta', 'county': 'Metro Vancouver Regional District', 'state': 'British Columbia', 'postcode': 'V4K 5B4', 'country': 'Canada', 'country_code': 'ca'}",place_of_worship,Delta,49.0893484,-123.06497399999999,Pneuma Church,{'religion': 'christian'},2019-06-23T00:36:43.000-07:00
"{'amenity': 'Ladner Gospel Assembly', 'road': '44A Avenue', 'suburb': 'Ladner', 'city_district': 'Ladner', 'city': 'Delta', 'county': 'Metro Vancouver Regional District', 'state': 'British Columbia', 'postcode': 'V4K 1V0', 'country': 'Canada', 'country_code': 'ca'}",place_of_worship,Delta,49.0840124,-123.08551100000001,Ladner Gospel Assembly,"{'website': 'https://www.ladnergospelassembly.com/', 'religion': 'christian'}",2019-06-23T00:36:43.000-07:00
"{'amenity': 'Cedar Park Church', 'road': '44 Avenue', 'suburb': 'Ladner', 'city_district': 'Ladner', 'city': 'Delta', 'county': 'Metro Vancouver Regional District', 'state': 'British Columbia', 'postcode': 'V4K 1W4', 'country': 'Canada', 'country_code': 'ca'}",place_of_worship,Delta,49.0827377,-123.07641809999998,Cedar Park Church,"{'website': 'https://cedarparkchurch.org/', 'denomination': 'mennonite', 'religion': 'christian'}",2019-06-23T00:36:43.000-07:00
"{'amenity': 'Lighthouse Church', 'road': '48B Avenue', 'residential': 'Lynden Court Family Rental Housing', 'suburb': 'Ladner', 'city_district': 'Ladner', 'city': 'Delta', 'county': 'Metro Vancouver Regional District', 'state': 'British Columbia', 'postcode': 'V4K 3C9', 'country': 'Canada', 'country_code': 'ca'}",place_of_worship,Delta,49.0907889,-123.06951770000002,Lighthouse Church,"{'website': 'https://www.ladnerlife.com/', 'religion': 'christian'}",2019-06-23T00:36:43.000-07:00
"{'amenity': 'Tsawwassen Ferry Terminal', 'house_number': '1', 'road': 'Ferry Causeway', 'city': 'Delta', 'county': 'Metro Vancouver Regional District', 'state': 'British Columbia', 'postcode': 'V4M 2P3', 'country': 'Canada', 'country_code': 'ca'}",recycling,Delta,49.008387299999995,-123.1301394,,{'recycling_type': 'container'},2019-02-04T00:35:49.000-08:00
"{'house_number': '1', 'road': 'Ferry Causeway', 'city': 'Delta', 'county': 'Metro Vancouver Regional District', 'state': 'British Columbia', 'postcode': 'V4M 2P3', 'country': 'Canada', 'country_code': 'ca'}",recycling,Delta,49.0082718,-123.12998020000002,,{'recycling_type': 'container'},2019-02-04T00:35:48.000-08:00
"{'amenity': 'Tsawwassen Ferry Terminal', 'house_number': '1', 'road': 'Ferry Causeway', 'city': 'Delta', 'county': 'Metro Vancouver Regional District', 'state': 'British Columbia', 'postcode': 'V4M 2P3', 'country': 'Canada', 'country_code': 'ca'}",recycling,Delta,49.008349100000004,-123.1301909,,{'recycling_type': 'container'},2019-02-04T00:35:52.000-08:00
"{'amenity': 'Bottle Depot', 'road': '12 Avenue', 'suburb': 'Tsawwassen', 'city_district': 'Tsawwassen', 'city': 'Delta', 'county': 'Metro Vancouver Regional District', 'state': 'British Columbia', 'postcode': 'V4L 2A4', 'country': 'Canada', 'country_code': 'ca'}",recycling,Delta,49.024515799999996,-123.0675933,Bottle Depot,"{'recycling_type': 'centre', 'operator': 'Encorp', 'building': 'yes'}",2019-08-18T20:56:16.000-07:00
"{'house_number': '8884', 'road': 'Russell Drive', 'quarter': 'Annieville', 'city_district': 'North Delta', 'city': 'Delta', 'county': 'Metro Vancouver Regional District', 'state': 'British Columbia', 'postcode': 'V4C4P8', 'country': 'Canada', 'country_code': 'ca'}",school,Delta,49.1650985,-122.91433020000001,,{},2011-07-08T00:07:25.000-07:00
"{'amenity': 'Gibson Elementary', 'road': '90 Avenue', 'city_district': 'North Delta', 'city': 'Delta', 'county': 'Metro Vancouver Regional District', 'state': 'British Columbia', 'postcode': 'V4C4P8', 'country': 'Canada', 'country_code': 'ca'}",school,Delta,49.1675135,-122.9046662,,{},2011-07-07T23:41:20.000-07:00
"{'building': 'Richardson Elementary School', 'road': '83 Avenue', 'neighbourhood': 'Social Heart', 'suburb': 'North Delta', 'city_district': 'North Delta', 'city': 'Delta', 'county': 'Metro Vancouver Regional District', 'state': 'British Columbia', 'postcode': 'V4C 0C8', 'country': 'Canada', 'country_code': 'ca'}",school,Delta,49.154658500000004,-122.90864930000001,,{},2011-07-07T23:02:24.000-07:00
"{'amenity': 'McCloskey Elementary', 'road': '116 Street', 'suburb': 'North Delta', 'city_district': 'North Delta', 'city': 'Delta', 'county': 'Metro Vancouver Regional District', 'state': 'British Columbia', 'postcode': 'V4C 0C8', 'country': 'Canada', 'country_code': 'ca'}",school,Delta,49.1494657,-122.9040493,,{},2011-07-07T23:02:28.000-07:00
"{'amenity': 'Deltassist', 'road': 'Bridge Street', 'suburb': 'Ladner', 'city_district': 'Ladner', 'city': 'Delta', 'county': 'Metro Vancouver Regional District', 'state': 'British Columbia', 'postcode': 'V4K 2T8', 'country': 'Canada', 'country_code': 'ca'}",social_facility,Delta,49.0912591,-123.08481019999999,Deltassist,{'social_facility': 'food_bank'},2019-09-05T07:08:10.000-07:00
"{'amenity': 'Delta Secondary School', 'road': 'Garry Street', 'suburb': 'Ladner', 'city_district': 'Ladner', 'city': 'Delta', 'county': 'Metro Vancouver Regional District', 'state': 'British Columbia', 'postcode': 'V4K 1V4', 'country': 'Canada', 'country_code': 'ca'}",theatre,Delta,49.0855287,-123.08480549999999,Genesis Theater,{},2010-06-10T23:31:20.000-07:00
"{'amenity': 'Tsawwassen Ferry Terminal', 'house_number': '1', 'road': 'Ferry Causeway', 'city': 'Delta', 'county': 'Metro Vancouver Regional District', 'state': 'British Columbia', 'postcode': 'V4M 2P3', 'country': 'Canada', 'country_code': 'ca'}",vending_machine,Delta,49.00920479999999,-123.128821,,{'vending': 'food'},2019-02-04T00:35:51.000-08:00
"{'amenity': 'Tsawwassen Ferry Terminal', 'house_number': '1', 'road': 'Ferry Causeway', 'city': 'Delta', 'county': 'Metro Vancouver Regional District', 'state': 'British Columbia', 'postcode': 'V4M 2P3', 'country': 'Canada', 'country_code': 'ca'}",vending_machine,Delta,49.0092109,-123.12883059999999,,{'vending': 'drinks'},2019-02-04T00:35:48.000-08:00
"{'amenity': 'Tsawwassen Ferry Terminal', 'house_number': '1', 'road': 'Ferry Causeway', 'city': 'Delta', 'county': 'Metro Vancouver Regional District', 'state': 'British Columbia', 'postcode': 'V4M 2P3', 'country': 'Canada', 'country_code': 'ca'}",vending_machine,Delta,49.00916779999999,-123.1287607,,{'vending': 'drinks'},2019-02-04T00:35:48.000-08:00
"{'amenity': 'Tsawwassen Ferry Terminal', 'house_number': '1', 'road': 'Ferry Causeway', 'city': 'Delta', 'county': 'Metro Vancouver Regional District', 'state': 'British Columbia', 'postcode': 'V4M 2P3', 'country': 'Canada', 'country_code': 'ca'}",vending_machine,Delta,49.0093828,-123.12866709999999,,"{'vending': 'excrement_bags', 'fee': 'no'}",2019-02-04T00:35:48.000-08:00
"{'building': 'Propane Storage Area', 'road': 'Ferry Causeway', 'city': 'Delta', 'county': 'Metro Vancouver Regional District', 'state': 'British Columbia', 'postcode': 'V4M 2P3', 'country': 'Canada', 'country_code': 'ca'}",vending_machine,Delta,49.0077447,-123.1308899,,"{'vending': 'drinks', 'brand': 'Coca Cola'}",2019-02-04T00:35:49.000-08:00
"{'shop': 'Tsawwassen Quay Market', 'road': 'Ferry Causeway', 'city': 'Delta', 'county': 'Metro Vancouver Regional District', 'state': 'British Columbia', 'postcode': 'V4M 2P3', 'country': 'Canada', 'country_code': 'ca'}",vending_machine,Delta,49.008150799999996,-123.13022209999998,,"{'vending': 'drinks;food', 'indoor': 'yes', 'operator': 'Ryan Vending'}",2019-02-04T00:35:51.000-08:00
"{'shop': 'Tsawwassen Quay Market', 'road': 'Ferry Causeway', 'city': 'Delta', 'county': 'Metro Vancouver Regional District', 'state': 'British Columbia', 'postcode': 'V4M 2P3', 'country': 'Canada', 'country_code': 'ca'}",vending_machine,Delta,49.008653499999994,-123.12949950000001,,"{'vending': 'drinks;food', 'indoor': 'yes'}",2019-02-04T00:35:51.000-08:00
"{'amenity': 'Tsawwassen Ferry Terminal', 'house_number': '1', 'road': 'Ferry Causeway', 'city': 'Delta', 'county': 'Metro Vancouver Regional District', 'state': 'British Columbia', 'postcode': 'V4M 2P3', 'country': 'Canada', 'country_code': 'ca'}",vending_machine,Delta,49.009809499999996,-123.12799369999999,,"{'vending': 'excrement_bags', 'fee': 'no'}",2019-02-04T00:35:51.000-08:00
"{'amenity': 'Coca Cola', 'house_number': '1', 'road': 'Ferry Causeway', 'city': 'Delta', 'county': 'Metro Vancouver Regional District', 'state': 'British Columbia', 'postcode': 'V4M 2P3', 'country': 'Canada', 'country_code': 'ca'}",vending_machine,Delta,49.0077507,-123.1309013,,"{'vending': 'drinks', 'brand': 'Coca Cola'}",2019-02-04T00:35:51.000-08:00
"{'amenity': 'Tsawwassen Ferry Terminal', 'house_number': '1', 'road': 'Ferry Causeway', 'city': 'Delta', 'county': 'Metro Vancouver Regional District', 'state': 'British Columbia', 'postcode': 'V4M 2P3', 'country': 'Canada', 'country_code': 'ca'}",vending_machine,Delta,49.0091617,-123.1287505,,{'vending': 'food'},2019-02-04T00:35:52.000-08:00
"{'house_number': '1', 'road': 'Ferry Causeway', 'city': 'Delta', 'county': 'Metro Vancouver Regional District', 'state': 'British Columbia', 'postcode': 'V4M 2P3', 'country': 'Canada', 'country_code': 'ca'}",vending_machine,Delta,49.0071041,-123.130416,,"{'payment:notes': 'yes', 'vending': 'public_transport_tickets', 'description': 'Foot Passenger Tickets', 'payment:coins': 'yes', 'payment:debit_cards': 'yes', 'operator': 'British Columbia Ferry Services Inc.'}",2014-07-19T04:16:41.000-07:00
"{'tourism': 'Small Dog Area', 'road': 'Hayward Place', 'suburb': 'Kennedy', 'city_district': 'North Delta', 'city': 'Delta', 'county': 'Metro Vancouver Regional District', 'state': 'British Columbia', 'postcode': 'V4C 5W9', 'country': 'Canada', 'country_code': 'ca'}",vending_machine,Delta,49.168382,-122.8999903,,{'vending': 'excrement_bags'},2020-03-20T22:43:34.000-07:00
"{'tourism': 'Large Dog Area', 'road': 'Hayward Place', 'suburb': 'Kennedy', 'city_district': 'North Delta', 'city': 'Delta', 'county': 'Metro Vancouver Regional District', 'state': 'British Columbia', 'postcode': 'V4C 5W9', 'country': 'Canada', 'country_code': 'ca'}",vending_machine,Delta,49.168139399999994,-122.9000134,,{'vending': 'excrement_bags'},2020-03-20T22:43:34.000-07:00
"{'shop': 'Double R Rentals', 'road': 'Elliott Street', 'suburb': 'Ladner', 'city_district': 'Ladner', 'city': 'Delta', 'county': 'Metro Vancouver Regional District', 'state': 'British Columbia', 'postcode': 'V4K 2Y1', 'country': 'Canada', 'country_code': 'ca'}",vending_machine,Delta,49.090981799999994,-123.0825412,,{'vending': 'fuel'},2018-09-15T06:17:46.000-07:00
"{'amenity': 'North Delta Animal Hospital', 'road': 'Scott Road', 'suburb': 'Kennedy', 'city_district': 'North Delta', 'city': 'Delta', 'county': 'Metro Vancouver Regional District', 'state': 'British Columbia', 'postcode': 'V4C 6R1', 'country': 'Canada', 'country_code': 'ca'}",veterinary,Delta,49.1532057,-122.89089240000001,North Delta Animal Hospital,{},2019-09-28T08:28:09.000-07:00
"{'amenity': '48th Avenue Animal Hospital', 'road': '48 Avenue', 'suburb': 'Ladner', 'city_district': 'Ladner', 'city': 'Delta', 'county': 'Metro Vancouver Regional District', 'state': 'British Columbia', 'postcode': 'V4K 1V0', 'country': 'Canada', 'country_code': 'ca'}",veterinary,Delta,49.0899791,-123.08440590000001,48th Avenue Animal Hospital,{},2019-08-20T16:53:20.000-07:00
"{'amenity': 'Huff Animal Hospital', 'road': '56 Street', 'suburb': 'Tsawwassen', 'city_district': 'Tsawwassen', 'city': 'Delta', 'county': 'Metro Vancouver Regional District', 'state': 'British Columbia', 'postcode': 'V4L 2A6', 'country': 'Canada', 'country_code': 'ca'}",veterinary,Delta,49.0304367,-123.06824669999999,Huff Animal Hospital,{},2019-08-18T10:15:50.000-07:00
"{'amenity': 'Little Caesars', 'road': 'Woodridge Crescent', 'suburb': 'Sunshine Hills', 'city_district': 'North Delta', 'city': 'Delta', 'county': 'Metro Vancouver Regional District', 'state': 'British Columbia', 'postcode': 'V4E 3G3', 'country': 'Canada', 'country_code': 'ca'}",veterinary,Delta,49.1206325,-122.8918799,,{},2019-08-18T05:55:49.000-07:00
"{'amenity': 'Trenant Park Pet Clinic', 'house_number': '5080', 'road': 'Linden Drive', 'suburb': 'Ladner', 'city_district': 'Ladner', 'city': 'Delta', 'county': 'Metro Vancouver Regional District', 'state': 'British Columbia', 'postcode': 'V4K 1W4', 'country': 'Canada', 'country_code': 'ca'}",veterinary,Delta,49.0954958,-123.07715300000001,Trenant Park Pet Clinic,"{'addr:housenumber': '5080', 'website': 'http://trenantparkpetclinic.com', 'addr:street': 'Linden Drive'}",2019-07-17T06:02:31.000-07:00
"{'shop': 'Tip to Toe Nails & Esthetics', 'road': 'Central Avenue', 'suburb': 'Ladner', 'city_district': 'Ladner', 'city': 'Delta', 'county': 'Metro Vancouver Regional District', 'state': 'British Columbia', 'postcode': 'V4K 1W4', 'country': 'Canada', 'country_code': 'ca'}",veterinary,Delta,49.091334700000004,-123.08026100000001,,{},2019-07-07T21:50:17.000-07:00
"{'amenity': 'Orphaned Wildlife Rehabilitation Society', 'road': 'Tower Access Rd.', 'city': 'Delta', 'county': 'Metro Vancouver Regional District', 'state': 'British Columbia', 'postcode': 'V4K 0A6', 'country': 'Canada', 'country_code': 'ca'}",animal_shelter,Delta,49.0714695,-123.0190822,Orphaned Wildlife Rehabilitation Society,"{'opening_hours': 'Mo-Su 09:00-16:00', 'website': 'https://www.owlrehab.org/', 'animal_shelter': 'wildlfe;bird'}",2019-07-14T06:47:45.000-07:00
"{'amenity': 'Tsawwassen Arts Centre', 'road': '12 Avenue', 'suburb': 'Tsawwassen', 'city_district': 'Tsawwassen', 'city': 'Delta', 'county': 'Metro Vancouver Regional District', 'state': 'British Columbia', 'postcode': 'V4L 2A4', 'country': 'Canada', 'country_code': 'ca'}",arts_centre,Delta,49.024100399999995,-123.0680384,Tsawwassen Arts Centre,{'operator': 'City of Delta'},2019-08-18T20:56:16.000-07:00
"{'house_number': '7047', 'road': 'Venture Street', 'suburb': 'Tilbury Island', 'city': 'Delta', 'county': 'Metro Vancouver Regional District', 'state': 'British Columbia', 'postcode': 'V4G 1H8', 'country': 'Canada', 'country_code': 'ca'}",car_rental,Delta,49.1297625,-123.0229882,Escape Campervans,"{'website': 'https://www.escapecampervans.com', 'internet_access': 'wlan', 'phone': '+1-310-672-9909', 'opening_hours': 'Mo-Su 08:30-16:30', 'name:fr': 'Escape Campervans Vancouver Depot', 'name:en': 'Escape Campervans Vancouver Depot', 'addr:postcode': 'V4G 1H8'}",2019-09-02T17:44:42.000-07:00
"{'amenity': 'Gracie Barra Jiu-Jitsu', 'road': 'Elliott Street', 'suburb': 'Ladner', 'city_district': 'Ladner', 'city': 'Delta', 'county': 'Metro Vancouver Regional District', 'state': 'British Columbia', 'postcode': 'V4K 2Y1', 'country': 'Canada', 'country_code': 'ca'}",dojo,Delta,49.0909034,-123.08330320000002,Gracie Barra Jiu-Jitsu,{},2019-09-05T06:38:44.000-07:00
"{'amenity': 'Royal Ocean Events', 'road': '48 Avenue', 'suburb': 'Ladner', 'city_district': 'Ladner', 'city': 'Delta', 'county': 'Metro Vancouver Regional District', 'state': 'British Columbia', 'postcode': 'V4K 1V0', 'country': 'Canada', 'country_code': 'ca'}",events_venue,Delta,49.089949600000004,-123.08359650000001,Royal Ocean Events,{},2019-08-19T03:36:36.000-07:00
"{'shop': 'Tsawwassen Mills', 'house_number': '5000', 'road': 'Canoe Pass Way', 'retail': 'Tsawwassen Commons', 'city': 'Delta', 'county': 'Metro Vancouver Regional District', 'state': 'British Columbia', 'postcode': 'V4E 0B3', 'country': 'Canada', 'country_code': 'ca'}",EVSE,Delta,49.0349,-123.0885,,{},2017-01-20T06:48:00.000-08:00
"{'amenity': 'Tsawwassen Berth 4', 'house_number': '1', 'road': 'Ferry Causeway', 'city': 'Delta', 'county': 'Metro Vancouver Regional District', 'state': 'British Columbia', 'postcode': 'V4M 2P3', 'country': 'Canada', 'country_code': 'ca'}",ferry_terminal,Delta,49.0065148,-123.13241699999999,Tsawwassen Berth 4,"{'operator': 'BC Ferries', 'network': 'BC Ferries'}",2019-05-13T00:52:06.000-07:00
"{'amenity': 'Tsawwassen Ferry Terminal', 'house_number': '1', 'road': 'Ferry Causeway', 'city': 'Delta', 'county': 'Metro Vancouver Regional District', 'state': 'British Columbia', 'postcode': 'V4M 2P3', 'country': 'Canada', 'country_code': 'ca'}",ferry_terminal,Delta,49.006194,-123.12945570000001,Tsawwassen Berth 2,"{'operator': 'BC Ferries', 'ferry_terminal': 'stop_position', 'network': 'BC Ferries'}",2020-03-27T17:01:50.000-07:00
"{'amenity': 'Tsawwassen Ferry Terminal', 'house_number': '1', 'road': 'Ferry Causeway', 'city': 'Delta', 'county': 'Metro Vancouver Regional District', 'state': 'British Columbia', 'postcode': 'V4M 2P3', 'country': 'Canada', 'country_code': 'ca'}",ferry_terminal,Delta,49.0069336,-123.1332142,Tsawwassen Berth 5,"{'operator': 'BC Ferries', 'network': 'BC Ferries'}",2019-05-13T00:52:06.000-07:00
"{'amenity': 'Tsawwassen Berth 3', 'house_number': '1', 'road': 'Ferry Causeway', 'city': 'Delta', 'county': 'Metro Vancouver Regional District', 'state': 'British Columbia', 'postcode': 'V4M 2P3', 'country': 'Canada', 'country_code': 'ca'}",ferry_terminal,Delta,49.0060626,-123.131684,Tsawwassen Berth 3,"{'operator': 'BC Ferries', 'ferry': 'yes', 'network': 'BC Ferries'}",2019-05-13T00:52:06.000-07:00
"{'amenity': 'Tsawwassen Ferry Terminal', 'house_number': '1', 'road': 'Ferry Causeway', 'city': 'Delta', 'county': 'Metro Vancouver Regional District', 'state': 'British Columbia', 'postcode': 'V4M 2P3', 'country': 'Canada', 'country_code': 'ca'}",ferry_terminal,Delta,49.0062901,-123.1289502,Tsawwassen Berth 1,{'network': 'BC Ferries'},2019-05-13T00:52:06.000-07:00
"{'building': 'North Delta Public Safety Building', 'house_number': '11375', 'road': '84 Avenue', 'neighbourhood': 'Social Heart', 'suburb': 'North Delta', 'city_district': 'North Delta', 'city': 'Delta', 'county': 'Metro Vancouver Regional District', 'state': 'British Columbia', 'postcode': 'V4C 2L9', 'country': 'Canada', 'country_code': 'ca'}",fire_station,Delta,49.156325700000004,-122.90762179999999,Delta Fire Station #3,{},2019-06-27T04:10:17.000-07:00
"{'house_number': '4645', 'road': 'Harvest Drive', 'suburb': 'Ladner', 'city_district': 'Ladner', 'city': 'Delta', 'county': 'Metro Vancouver Regional District', 'state': 'British Columbia', 'postcode': 'V4K 5B4', 'country': 'Canada', 'country_code': 'ca'}",fire_station,Delta,49.0872398,-123.06392209999998,Delta Fire Hall No. 1,{},2010-06-12T02:07:26.000-07:00
"{'shop': 'Tsawwassen Mills', 'house_number': '5000', 'road': 'Canoe Pass Way', 'retail': 'Tsawwassen Commons', 'city': 'Delta', 'county': 'Metro Vancouver Regional District', 'state': 'British Columbia', 'postcode': 'V4E 0B3', 'country': 'Canada', 'country_code': 'ca'}",food_court,Delta,49.0381299,-123.0859992,,{},2020-05-17T00:09:40.000-07:00
"{'leisure': 'Cove Links', 'road': 'Admiral Boulevard', 'city_district': 'Ladner', 'city': 'Delta', 'county': 'Metro Vancouver Regional District', 'state': 'British Columbia', 'postcode': 'V4K 1S8', 'country': 'Canada', 'country_code': 'ca'}",fountain,Delta,49.1110677,-123.07410159999998,,{},2017-05-14T23:50:06.000-07:00
"{'amenity': 'Sunstone Fountain', 'road': 'Delsom Crescent', 'neighbourhood': 'Sunstone', 'suburb': 'North Delta', 'city_district': 'North Delta', 'city': 'Delta', 'county': 'Metro Vancouver Regional District', 'state': 'British Columbia', 'postcode': 'V4C 2L2', 'country': 'Canada', 'country_code': 'ca'}",fountain,Delta,49.15585220000001,-122.92347099999999,Sunstone Fountain,{'lit': 'yes'},2019-06-26T07:37:24.000-07:00
"{'house_number': '4470', 'road': 'Clarence Taylor Crescent', 'city_district': 'Ladner', 'city': 'Delta', 'county': 'Metro Vancouver Regional District', 'state': 'British Columbia', 'postcode': 'V4K 5B4', 'country': 'Canada', 'country_code': 'ca'}",fountain,Delta,49.085201299999994,-123.0589029,,{},2017-04-28T22:49:51.000-07:00
"{'amenity': 'China Canadian Education Exchange Center Ltd.', 'road': 'Ladner Trunk Road', 'suburb': 'Ladner', 'city_district': 'Ladner', 'city': 'Delta', 'county': 'Metro Vancouver Regional District', 'state': 'British Columbia', 'postcode': 'V4K 3C9', 'country': 'Canada', 'country_code': 'ca'}",language_school,Delta,49.090549100000004,-123.06573,China Canadian Education Exchange Center Ltd.,{},2019-06-09T22:11:16.000-07:00
"{'amenity': 'Ladner Community Centre', 'house_number': '4734', 'road': '47 Avenue', 'suburb': 'Ladner', 'city_district': 'Ladner', 'city': 'Delta', 'county': 'Metro Vancouver Regional District', 'state': 'British Columbia', 'postcode': 'V4K 1V0', 'country': 'Canada', 'country_code': 'ca'}",childcare,Delta,49.0886489,-123.08231979999998,,{},2019-06-13T02:22:21.000-07:00
"{'house_number': '4669', 'road': '62 Street', 'city_district': 'East Ladner', 'city': 'Delta', 'county': 'Metro Vancouver Regional District', 'state': 'British Columbia', 'postcode': 'V4K 3C9', 'country': 'Canada', 'country_code': 'ca'}",childcare,Delta,49.0875759,-123.05157630000001,,{},2017-06-20T06:36:06.000-07:00
"{'building': 'North Delta Public Safety Building', 'house_number': '11375', 'road': '84 Avenue', 'neighbourhood': 'Social Heart', 'suburb': 'North Delta', 'city_district': 'North Delta', 'city': 'Delta', 'county': 'Metro Vancouver Regional District', 'state': 'British Columbia', 'postcode': 'V4C 2L9', 'country': 'Canada', 'country_code': 'ca'}",police,Delta,49.1564265,-122.90729840000002,North Delta Police Station,{},2019-06-27T04:10:17.000-07:00
"{'house_number': '4455', 'road': 'Clarence Taylor Crescent', 'city_district': 'Ladner', 'city': 'Delta', 'county': 'Metro Vancouver Regional District', 'state': 'British Columbia', 'postcode': 'V4K 5B4', 'country': 'Canada', 'country_code': 'ca'}",police,Delta,49.0836597,-123.06071370000001,Delta Police Station,{},2010-06-12T01:46:38.000-07:00
"{'house_number': '6210', 'road': '49 Avenue', 'city_district': 'East Ladner', 'city': 'Delta', 'county': 'Metro Vancouver Regional District', 'state': 'British Columbia', 'postcode': 'V4K 3C9', 'country': 'Canada', 'country_code': 'ca'}",public_bookcase,Delta,49.091813,-123.05052749999999,,{},2020-05-06T03:28:04.000-07:00
"{'house_number': '4651', 'road': '52A Street', 'residential': 'Laburnum Park Place', 'suburb': 'Ladner', 'city_district': 'Ladner', 'city': 'Delta', 'county': 'Metro Vancouver Regional District', 'state': 'British Columbia', 'postcode': 'V4K 1W4', 'country': 'Canada', 'country_code': 'ca'}",public_bookcase,Delta,49.0874547,-123.0785595,,{},2020-05-06T03:28:04.000-07:00
"{'highway': 'Beach Grove Rd (NB) at Whitcomb Pl', 'road': 'Beach Grove Road', 'city_district': 'Tsawwassen', 'city': 'Delta', 'county': 'Metro Vancouver Regional District', 'state': 'British Columbia', 'postcode': 'V4L 1V1', 'country': 'Canada', 'country_code': 'ca'}",public_bookcase,Delta,49.0280626,-123.0572999,,{},2019-02-10T21:48:43.000-08:00
"{'highway': '116 St (NB) at 82 Ave', 'road': '116 Street', 'suburb': 'North Delta', 'city_district': 'North Delta', 'city': 'Delta', 'county': 'Metro Vancouver Regional District', 'state': 'British Columbia', 'postcode': 'V4C 0C8', 'country': 'Canada', 'country_code': 'ca'}",public_bookcase,Delta,49.1526135,-122.90134740000002,,{'public_bookcase:type': 'wooden_cabinet'},2019-09-14T00:30:50.000-07:00
"{'leisure': 'Delsom Pump Track', 'road': '84 Avenue', 'neighbourhood': 'Social Heart', 'suburb': 'North Delta', 'city_district': 'North Delta', 'city': 'Delta', 'county': 'Metro Vancouver Regional District', 'state': 'British Columbia', 'postcode': 'V4C 2L7', 'country': 'Canada', 'country_code': 'ca'}",shelter,Delta,49.1575877,-122.90883249999999,,{'shelter_type': 'picnic_shelter'},2020-04-16T02:06:13.000-07:00
"{'leisure': 'Delview Softball', 'road': '92 Avenue', 'quarter': 'Annieville', 'suburb': 'Kennedy', 'city_district': 'North Delta', 'city': 'Delta', 'county': 'Metro Vancouver Regional District', 'state': 'British Columbia', 'postcode': 'V4C 5W9', 'country': 'Canada', 'country_code': 'ca'}",shelter,Delta,49.169732700000004,-122.8989452,,{'shelter_type': 'picnic_shelter'},2020-04-20T22:24:27.000-07:00
"{'highway': 'Ferry Rd (NB) at Brigantine Rd', 'road': 'Ferry Road', 'city_district': 'Ladner', 'city': 'Delta', 'county': 'Metro Vancouver Regional District', 'state': 'British Columbia', 'postcode': 'V4K 1S8', 'country': 'Canada', 'country_code': 'ca'}",shelter,Delta,49.1030681,-123.0791956,,{'shelter_type': 'gazebo'},2020-05-06T03:53:49.000-07:00
"{'house_number': '7986', 'road': '111 Street', 'suburb': 'North Delta', 'city_district': 'North Delta', 'city': 'Delta', 'county': 'Metro Vancouver Regional District', 'state': 'British Columbia', 'postcode': 'V4C 2L0', 'country': 'Canada', 'country_code': 'ca'}",shelter,Delta,49.1479185,-122.9158111,,{'shelter_type': 'gazebo'},2019-06-24T04:27:39.000-07:00
"{'leisure': 'Delsom Pump Track', 'road': '84 Avenue', 'neighbourhood': 'Social Heart', 'suburb': 'North Delta', 'city_district': 'North Delta', 'city': 'Delta', 'county': 'Metro Vancouver Regional District', 'state': 'British Columbia', 'postcode': 'V4C 2L7', 'country': 'Canada', 'country_code': 'ca'}",shelter,Delta,49.1569025,-122.90963789999999,,"{'shelter_type': 'gazebo', 'bench': 'no', 'lit': 'yes'}",2019-06-24T21:43:20.000-07:00
"{'house_number': '7727', 'road': 'Beedie Road', 'suburb': 'Tilbury Island', 'city': 'Delta', 'county': 'Metro Vancouver Regional District', 'state': 'British Columbia', 'postcode': 'V4G 1A6', 'country': 'Canada', 'country_code': 'ca'}",shelter,Delta,49.1470652,-123.01155959999998,,{'shelter_type': 'picnic_shelter'},2019-07-06T21:15:16.000-07:00
"{'amenity': 'Royal Canadian Legion Hall', 'house_number': '1835', 'road': '19 Avenue', 'city_district': 'Tsawwassen', 'city': 'Delta', 'county': 'Metro Vancouver Regional District', 'state': 'British Columbia', 'postcode': 'V4L 1J3', 'country': 'Canada', 'country_code': 'ca'}",social_centre,Delta,49.0364841,-123.0699259,Royal Canadian Legion Hall,"{'brand:wikidata': 'Q3270231', 'official_name': 'Royal Canadian Legion - Branch 289 (Tsawwassen)', 'note': 'Position approximate', 'addr:housenumber': '1835', 'phone': '+1-604-943-0232', 'brand:wikipedia': 'en:Royal Canadian Legion', 'short_name': 'RCL', 'addr:street': '56th Street', 'brand': 'Royal Canadian Legion', 'addr:unit': '22'}",2020-01-10T03:06:06.000-08:00
"{'amenity': 'Ladner Storage', 'house_number': '4141', 'road': 'River Road West', 'city_district': 'Riverside', 'city': 'Delta', 'county': 'Metro Vancouver Regional District', 'state': 'British Columbia', 'postcode': 'V4K 1R9', 'country': 'Canada', 'country_code': 'ca'}",storage_rental,Delta,49.0848614,-123.1087912,Ladner Storage,"{'addr:province': 'BC', 'payment:credit_cards': 'yes', 'contact:google_plus': 'https://g.page/LadnerStorage', 'contact:email': 'info@ladnerstorage.ca', 'addr:postcode': 'V4K 1R9', 'addr:city': 'Delta', 'addr:housenumber': '4141', 'contact:phone': '16049437735', 'opening_hours': '24/7', 'addr:town': 'Ladner', 'addr:street': 'River Road West', 'contact:website': 'https://ladnerstorage.ca'}",2020-01-05T23:11:05.000-08:00
"{'house_number': '1', 'road': 'Ferry Causeway', 'city': 'Delta', 'county': 'Metro Vancouver Regional District', 'state': 'British Columbia', 'postcode': 'V4M 2P3', 'country': 'Canada', 'country_code': 'ca'}",taxi,Delta,49.0068653,-123.1300514,,{},2018-08-19T00:13:16.000-07:00
"{'amenity': 'Tsawwassen Ferry Terminal', 'house_number': '1', 'road': 'Ferry Causeway', 'city': 'Delta', 'county': 'Metro Vancouver Regional District', 'state': 'British Columbia', 'postcode': 'V4M 2P3', 'country': 'Canada', 'country_code': 'ca'}",telephone,Delta,49.00796550000001,-123.13047959999999,,{'operator': 'Telus'},2019-02-04T00:35:50.000-08:00
"{'amenity': 'Tsawwassen Ferry Terminal', 'house_number': '1', 'road': 'Ferry Causeway', 'city': 'Delta', 'county': 'Metro Vancouver Regional District', 'state': 'British Columbia', 'postcode': 'V4M 2P3', 'country': 'Canada', 'country_code': 'ca'}",telephone,Delta,49.008305,-123.13002730000001,,"{'indoor': 'yes', 'operator': 'Telus'}",2019-02-04T00:35:48.000-08:00
"{'house_number': '5725', 'road': 'Ladner Trunk Road', 'suburb': 'Ladner', 'city_district': 'Ladner', 'city': 'Delta', 'county': 'Metro Vancouver Regional District', 'state': 'British Columbia', 'postcode': 'V4K 3C9', 'country': 'Canada', 'country_code': 'ca'}",telephone,Delta,49.090344200000004,-123.0644672,,"{'operator': 'Telus', 'fee': 'yes'}",2019-08-02T01:58:22.000-07:00
"{'amenity': 'Tsawwassen Ferry Terminal', 'house_number': '1', 'road': 'Ferry Causeway', 'city': 'Delta', 'county': 'Metro Vancouver Regional District', 'state': 'British Columbia', 'postcode': 'V4M 2P3', 'country': 'Canada', 'country_code': 'ca'}",telephone,Delta,49.0091985,-123.12881110000001,,"{'operator': 'Telus', 'fee': 'yes'}",2019-02-04T00:35:52.000-08:00
"{'shop': 'BC Tires', 'road': 'Scott Road', 'suburb': 'Kennedy', 'city_district': 'North Delta', 'city': 'Delta', 'county': 'Metro Vancouver Regional District', 'state': 'British Columbia', 'postcode': 'V3W 3J2', 'country': 'Canada', 'country_code': 'ca'}",telephone,Delta,49.16595529999999,-122.8905117,,{'operator': 'Bell'},2012-04-29T09:53:10.000-07:00
"{'house_number': '1', 'road': 'Ferry Causeway', 'city': 'Delta', 'county': 'Metro Vancouver Regional District', 'state': 'British Columbia', 'postcode': 'V4M 2P3', 'country': 'Canada', 'country_code': 'ca'}",telephone,Delta,49.0069144,-123.1301229,,{},2017-08-15T01:07:48.000-07:00
"{'amenity': 'Krispy Kreme', 'road': 'Scott Road', 'suburb': 'Sunshine Hills', 'city_district': 'North Delta', 'city': 'Delta', 'county': 'Metro Vancouver Regional District', 'state': 'British Columbia', 'postcode': 'V4C 0E1', 'country': 'Canada', 'country_code': 'ca'}",waste_disposal,Delta,49.1322835,-122.8913422,,{},2020-03-28T03:06:02.000-07:00
"{'shop': 'Tsawwassen Quay Market', 'road': 'Ferry Causeway', 'city': 'Delta', 'county': 'Metro Vancouver Regional District', 'state': 'British Columbia', 'postcode': 'V4M 2P3', 'country': 'Canada', 'country_code': 'ca'}",drinking_water,Delta,49.008182700000006,-123.13018980000001,,{'indoor': 'yes'},2019-02-04T00:35:50.000-08:00
"{'house_number': '1', 'road': 'Ferry Causeway', 'city': 'Delta', 'county': 'Metro Vancouver Regional District', 'state': 'British Columbia', 'postcode': 'V4M 2P3', 'country': 'Canada', 'country_code': 'ca'}",drinking_water,Delta,49.0083745,-123.12994579999999,,"{'indoor': 'yes', 'fee': 'no'}",2019-02-04T00:35:50.000-08:00
"{'tourism': 'Bird Museum', 'road': 'Robertson Road', 'city': 'Delta', 'county': 'Metro Vancouver Regional District', 'state': 'British Columbia', 'postcode': 'V7E 3R3', 'country': 'Canada', 'country_code': 'ca'}",drinking_water,Delta,49.0983951,-123.178366,,{},2011-07-27T01:15:54.000-07:00
"{'amenity': 'Centennial Beach Cafe', 'road': '12th Ave Dyke Trail', 'suburb': 'Boundary Bay', 'city_district': 'Tsawwassen', 'city': 'Delta', 'county': 'Metro Vancouver Regional District', 'state': 'British Columbia', 'postcode': 'V4L 1V1', 'country': 'Canada', 'country_code': 'ca'}",drinking_water,Delta,49.01486679999999,-123.0404699,,{},2016-05-08T03:59:43.000-07:00
"{'amenity': 'Annieville Elementary', 'road': '114 Street', 'quarter': 'Annieville', 'suburb': 'Kennedy', 'city_district': 'North Delta', 'city': 'Delta', 'county': 'Metro Vancouver Regional District', 'state': 'British Columbia', 'postcode': 'V4C 3N9', 'country': 'Canada', 'country_code': 'ca'}",drinking_water,Delta,49.1697277,-122.9098799,,{},2015-06-08T04:47:51.000-07:00
"{'leisure': 'Annieville Water Park', 'road': '91 Avenue', 'quarter': 'Annieville', 'suburb': 'Kennedy', 'city_district': 'North Delta', 'city': 'Delta', 'county': 'Metro Vancouver Regional District', 'state': 'British Columbia', 'postcode': 'V4C2S2', 'country': 'Canada', 'country_code': 'ca'}",drinking_water,Delta,49.1696889,-122.91006979999999,,{},2015-06-08T04:47:51.000-07:00
"{'leisure': 'Watershed Park', 'road': 'Old Highway 10', 'city_district': 'North Delta', 'city': 'Delta', 'county': 'Metro Vancouver Regional District', 'state': 'British Columbia', 'postcode': 'V4E 2B0', 'country': 'Canada', 'country_code': 'ca'}",drinking_water,Delta,49.1163664,-122.90411999999999,,{},2015-06-26T05:13:47.000-07:00
"{'road': 'Deas Island Road', 'city': 'Delta', 'county': 'Metro Vancouver Regional District', 'state': 'British Columbia', 'postcode': 'V4K 4E2', 'country': 'Canada', 'country_code': 'ca'}",drinking_water,Delta,49.1270187,-123.0529006,,{},2016-04-19T00:22:16.000-07:00
"{'leisure': 'Delta Deas Rowing Club', 'house_number': '6090', 'road': 'Deas Island Road', 'city': 'Delta', 'county': 'Metro Vancouver Regional District', 'state': 'British Columbia', 'postcode': 'V4K 4E2', 'country': 'Canada', 'country_code': 'ca'}",drinking_water,Delta,49.1266631,-123.0555908,,{},2015-02-09T21:46:08.000-08:00
"{'road': 'Boundary Bay Dyke Trail', 'city': 'Delta', 'county': 'Metro Vancouver Regional District', 'state': 'British Columbia', 'postcode': 'V4K 3N3', 'country': 'Canada', 'country_code': 'ca'}",drinking_water,Delta,49.0771049,-122.93575990000002,,{},2016-04-20T01:03:10.000-07:00
"{'amenity': ""Fisher's Field Picnic Area"", 'road': 'Deas Island Road', 'city': 'Delta', 'county': 'Metro Vancouver Regional District', 'state': 'British Columbia', 'postcode': 'V4K 4E2', 'country': 'Canada', 'country_code': 'ca'}",drinking_water,Delta,49.1217135,-123.063553,,{},2013-10-27T05:18:10.000-07:00
"{'amenity': ""Fisher's Field Picnic Area"", 'road': 'Deas Island Road', 'city': 'Delta', 'county': 'Metro Vancouver Regional District', 'state': 'British Columbia', 'postcode': 'V4K 4E2', 'country': 'Canada', 'country_code': 'ca'}",drinking_water,Delta,49.121930299999995,-123.06298559999999,,{},2017-04-29T20:56:27.000-07:00
"{'road': '12th Ave Dyke Trail', 'suburb': 'Boundary Bay', 'city_district': 'Tsawwassen', 'city': 'Delta', 'county': 'Metro Vancouver Regional District', 'state': 'British Columbia', 'postcode': 'V4L 1V1', 'country': 'Canada', 'country_code': 'ca'}",drinking_water,Delta,49.0133033,-123.03936929999999,,{},2016-05-08T03:59:33.000-07:00
"{'house_number': '265', 'road': 'English Bluff Road', 'suburb': 'Tsawwassen', 'city_district': 'Tsawwassen', 'city': 'Delta', 'county': 'Metro Vancouver Regional District', 'state': 'British Columbia', 'postcode': 'V4M 2P3', 'country': 'Canada', 'country_code': 'ca'}",drinking_water,Delta,49.0076777,-123.0903041,,{},2019-08-19T22:39:04.000-07:00
"{'amenity': 'Shell', 'house_number': '7165', 'road': 'Scott Road', 'suburb': 'Sunshine Hills', 'city_district': 'North Delta', 'city': 'Delta', 'county': 'Metro Vancouver Regional District', 'state': 'British Columbia', 'postcode': 'V4C 0E1', 'country': 'Canada', 'country_code': 'ca'}",fuel,Delta,49.1337505,-122.8908284,Shell,"{'brand:wikidata': 'Q154950', 'addr:housenumber': '7165', 'addr:street': 'Scott Road', 'brand': 'Shell', 'brand:wikipedia': 'en:Royal Dutch Shell'}",2019-06-25T02:54:10.000-07:00
"{'shop': 'Husky', 'road': 'River Road', 'suburb': 'Tilbury Island', 'city': 'Delta', 'county': 'Metro Vancouver Regional District', 'state': 'British Columbia', 'postcode': 'V4G 1K6', 'country': 'Canada', 'country_code': 'ca'}",fuel,Delta,49.1405785,-123.01361270000001,Husky,"{'shop': 'yes', 'fuel:diesel': 'yes', 'fuel:octane_87': 'yes', 'operator': 'Husky', 'fuel:lpg': 'yes'}",2014-08-07T12:20:35.000-07:00
"{'amenity': 'Shell', 'road': '16 Avenue', 'city_district': 'Tsawwassen', 'city': 'Delta', 'county': 'Metro Vancouver Regional District', 'state': 'British Columbia', 'postcode': 'V4L 1J3', 'country': 'Canada', 'country_code': 'ca'}",fuel,Delta,49.031721600000004,-123.06920330000001,Shell,"{'brand:wikidata': 'Q154950', 'brand': 'Shell', 'brand:wikipedia': 'en:Royal Dutch Shell'}",2019-08-18T10:15:50.000-07:00
"{'amenity': 'Petro-Canada', 'road': '12 Avenue', 'suburb': 'Tsawwassen', 'city_district': 'Tsawwassen', 'city': 'Delta', 'county': 'Metro Vancouver Regional District', 'state': 'British Columbia', 'postcode': 'V4L 2A4', 'country': 'Canada', 'country_code': 'ca'}",fuel,Delta,49.0244246,-123.0683555,Petro-Canada,"{'brand:wikidata': 'Q1208279', 'brand': 'Petro-Canada', 'brand:wikipedia': 'en:Petro-Canada'}",2019-08-18T20:56:16.000-07:00
"{'amenity': 'Chevron Cardlock', 'house_number': '2859', 'road': '41B Street', 'city': 'Delta', 'county': 'Metro Vancouver Regional District', 'state': 'British Columbia', 'postcode': 'V4K 3N2', 'country': 'Canada', 'country_code': 'ca'}",fuel,Delta,49.0546092,-123.1110632,Chevron Cardlock,"{'addr:province': 'British Columbia', 'addr:housenumber': '2859', 'phone': '+1-604-576-2961', 'addr:street': '41B Street', 'addr:postcode': 'V4K 3N2', 'addr:city': 'Delta'}",2020-01-29T01:46:43.000-08:00
"{'amenity': 'Petro Pass', 'house_number': '10178', 'road': 'Nordel Court', 'city_district': 'North Delta', 'city': 'Delta', 'county': 'Metro Vancouver Regional District', 'state': 'British Columbia', 'postcode': 'V4G 1J7', 'country': 'Canada', 'country_code': 'ca'}",fuel,Delta,49.14884970000001,-122.93968899999999,Petro Pass,"{'addr:housenumber': '10178', 'phone': '+1-604-581-3835', 'addr:street': 'Nordel Court', 'addr:postcode': 'V4G 1J7', 'operator': 'Petro Canada', 'addr:city': 'Delta'}",2019-10-28T15:41:35.000-07:00
"{'leisure': 'Captains Cove Marina', 'house_number': '6100', 'road': 'Ferry Road', 'city_district': 'Ladner', 'city': 'Delta', 'county': 'Metro Vancouver Regional District', 'state': 'British Columbia', 'postcode': 'V4K 1S8', 'country': 'Canada', 'country_code': 'ca'}",fuel,Delta,49.1144939,-123.07726979999998,,{},2009-07-20T17:57:06.000-07:00
"{'amenity': 'Esso', 'house_number': '5725', 'road': 'Ladner Trunk Road', 'suburb': 'Ladner', 'city_district': 'Ladner', 'city': 'Delta', 'county': 'Metro Vancouver Regional District', 'state': 'British Columbia', 'postcode': 'V4K 3C9', 'country': 'Canada', 'country_code': 'ca'}",fuel,Delta,49.0904997,-123.0647436,Esso,"{'brand:wikidata': 'Q867662', 'brand': 'Esso', 'brand:wikipedia': 'en:Esso'}",2019-06-06T07:44:09.000-07:00
"{'amenity': 'Petro-Canada', 'house_number': '5457', 'road': 'Ladner Trunk Road', 'suburb': 'Ladner', 'city_district': 'Ladner', 'city': 'Delta', 'county': 'Metro Vancouver Regional District', 'state': 'British Columbia', 'postcode': 'V4K 1W4', 'country': 'Canada', 'country_code': 'ca'}",fuel,Delta,49.0905125,-123.07197279999998,Petro-Canada,"{'brand:wikidata': 'Q1208279', 'brand': 'Petro-Canada', 'brand:wikipedia': 'en:Petro-Canada'}",2019-06-06T07:44:09.000-07:00
"{'house_number': '5277', 'road': 'Ladner Trunk Road', 'suburb': 'Ladner', 'city_district': 'Ladner', 'city': 'Delta', 'county': 'Metro Vancouver Regional District', 'state': 'British Columbia', 'postcode': 'V4K 1W4', 'country': 'Canada', 'country_code': 'ca'}",fuel,Delta,49.0904492,-123.077525,Shell,"{'brand:wikidata': 'Q154950', 'brand': 'Shell', 'brand:wikipedia': 'en:Royal Dutch Shell'}",2019-06-06T07:44:09.000-07:00
"{'amenity': 'Otter Co-op', 'house_number': '6420', 'road': 'Ladner Trunk Road', 'city_district': 'East Ladner', 'city': 'Delta', 'county': 'Metro Vancouver Regional District', 'state': 'British Columbia', 'postcode': 'V4K 3C9', 'country': 'Canada', 'country_code': 'ca'}",fuel,Delta,49.089903799999995,-123.0458996,Otter Co-op,{'shop': 'convenience'},2016-04-17T05:55:53.000-07:00
"{'amenity': 'Chevron', 'house_number': '5206', 'road': 'Ladner Trunk Road', 'suburb': 'Ladner', 'city_district': 'Ladner', 'city': 'Delta', 'county': 'Metro Vancouver Regional District', 'state': 'British Columbia', 'postcode': 'V4K 1W4', 'country': 'Canada', 'country_code': 'ca'}",fuel,Delta,49.0899558,-123.07895459999999,Chevron,"{'brand:wikidata': 'Q319642', 'addr:housenumber': '5206', 'addr:street': 'Ladner Trunk Road', 'brand': 'Chevron', 'brand:wikipedia': 'en:Chevron Corporation'}",2019-06-06T07:44:09.000-07:00
"{'amenity': 'Chevron', 'house_number': '9628', 'road': 'Ladner Trunk Road', 'city': 'Delta', 'county': 'Metro Vancouver Regional District', 'state': 'British Columbia', 'postcode': 'V4K 3N3', 'country': 'Canada', 'country_code': 'ca'}",fuel,Delta,49.091361600000006,-122.95668459999999,Chevron,"{'brand:wikidata': 'Q319642', 'addr:housenumber': '9628', 'brand:wikipedia': 'en:Chevron Corporation', 'opening_hours': '24/7', 'addr:street': 'Ladner Trunk Road', 'brand': 'Chevron', 'addr:city': 'Delta'}",2019-09-13T13:56:49.000-07:00
"{'amenity': 'Esso', 'house_number': '9591', 'road': 'Ladner Trunk Road', 'city': 'Delta', 'county': 'Metro Vancouver Regional District', 'state': 'British Columbia', 'postcode': 'V4K 3N3', 'country': 'Canada', 'country_code': 'ca'}",fuel,Delta,49.0918062,-122.95768590000002,Esso,"{'brand:wikidata': 'Q867662', 'addr:housenumber': '9591', 'brand:wikipedia': 'en:Esso', 'opening_hours': '24/7', 'addr:street': 'Ladner Trunk Road', 'brand': 'Esso', 'addr:city': 'Delta'}",2019-09-13T13:56:49.000-07:00
"{'house_number': '6020', 'road': '17A Avenue', 'city_district': 'Tsawwassen', 'city': 'Delta', 'county': 'Metro Vancouver Regional District', 'state': 'British Columbia', 'postcode': 'V4L 1V1', 'country': 'Canada', 'country_code': 'ca'}",parking,Delta,49.0347514,-123.05712040000002,,{},2016-04-20T07:24:41.000-07:00
"{'shop': 'Divine Nails', 'road': 'Scott Road', 'suburb': 'Kennedy', 'city_district': 'North Delta', 'city': 'Delta', 'county': 'Metro Vancouver Regional District', 'state': 'British Columbia', 'postcode': 'V3W 3J2', 'country': 'Canada', 'country_code': 'ca'}",parking,Delta,49.16563729999999,-122.89069340000002,,{},2016-08-03T06:33:00.000-07:00
"{'amenity': 'Desi Junction Lounge & Restaurant', 'house_number': '8821', 'road': 'Scott Road', 'suburb': 'Kennedy', 'city_district': 'North Delta', 'city': 'Delta', 'county': 'Metro Vancouver Regional District', 'state': 'British Columbia', 'postcode': 'V3W 3J2', 'country': 'Canada', 'country_code': 'ca'}",parking,Delta,49.1644026,-122.8907203,,{},2016-08-03T06:33:00.000-07:00
"{'amenity': 'Husky', 'road': 'Scott Road', 'suburb': 'Kennedy', 'city_district': 'North Delta', 'city': 'Delta', 'county': 'Metro Vancouver Regional District', 'state': 'British Columbia', 'postcode': 'V3W 3J2', 'country': 'Canada', 'country_code': 'ca'}",parking,Delta,49.163117,-122.8914203,,{},2016-08-03T06:33:00.000-07:00
"{'retail': 'Kennedy Heights', 'suburb': 'Kennedy', 'city_district': 'North Delta', 'city': 'Delta', 'county': 'Metro Vancouver Regional District', 'state': 'British Columbia', 'postcode': 'V4C 3C8', 'country': 'Canada', 'country_code': 'ca'}",parking,Delta,49.1622032,-122.8918092,,{},2016-08-03T06:33:00.000-07:00
"{'house_number': '8195', 'road': 'Scott Road', 'suburb': 'Kennedy', 'city_district': 'North Delta', 'city': 'Delta', 'county': 'Metro Vancouver Regional District', 'state': 'British Columbia', 'postcode': 'V4C 6R1', 'country': 'Canada', 'country_code': 'ca'}",parking,Delta,49.1513524,-122.891894,,"{'parking': 'underground', 'layer': '-1'}",2019-06-25T02:54:10.000-07:00
"{'shop': 'Real Canadian Superstore', 'house_number': '8195', 'road': 'Scott Road', 'suburb': 'Kennedy', 'city_district': 'North Delta', 'city': 'Delta', 'county': 'Metro Vancouver Regional District', 'state': 'British Columbia', 'postcode': 'V4C 6R1', 'country': 'Canada', 'country_code': 'ca'}",parking,Delta,49.1521411,-122.89189979999999,,"{'parking': 'underground', 'layer': '-1'}",2019-06-25T02:54:10.000-07:00
"{'road': 'Old Highway 10', 'city_district': 'North Delta', 'city': 'Delta', 'county': 'Metro Vancouver Regional District', 'state': 'British Columbia', 'postcode': 'V4E 2B0', 'country': 'Canada', 'country_code': 'ca'}",parking,Delta,49.1057098,-122.8982225,,{},2009-07-16T03:00:02.000-07:00
"{'road': 'Kittson Parkway', 'suburb': 'Sunshine Hills', 'city_district': 'North Delta', 'city': 'Delta', 'county': 'Metro Vancouver Regional District', 'state': 'British Columbia', 'postcode': 'V4E 3G3', 'country': 'Canada', 'country_code': 'ca'}",parking,Delta,49.118832399999995,-122.9055699,,{},2015-06-26T00:01:55.000-07:00
"{'house_number': '11796', 'road': 'Pinewood Drive', 'suburb': 'Sunshine Hills', 'city_district': 'North Delta', 'city': 'Delta', 'county': 'Metro Vancouver Regional District', 'state': 'British Columbia', 'postcode': 'V4E 2B0', 'country': 'Canada', 'country_code': 'ca'}",parking,Delta,49.1145105,-122.8969094,,{},2015-06-26T00:01:55.000-07:00
"{'road': 'Kittson Parkway', 'suburb': 'Sunshine Hills', 'city_district': 'North Delta', 'city': 'Delta', 'county': 'Metro Vancouver Regional District', 'state': 'British Columbia', 'postcode': 'V4E 1C1', 'country': 'Canada', 'country_code': 'ca'}",parking,Delta,49.1187079,-122.9156888,,{},2015-06-26T05:13:50.000-07:00
"{'city': 'Delta', 'county': 'Metro Vancouver Regional District', 'state': 'British Columbia', 'postcode': 'V4E 2B0', 'country': 'Canada', 'country_code': 'ca'}",parking,Delta,49.0949711,-122.89827520000001,,{},2018-12-09T02:10:46.000-08:00
"{'house_number': '8463', 'road': '115 Street', 'neighbourhood': 'Social Heart', 'suburb': 'North Delta', 'city_district': 'North Delta', 'city': 'Delta', 'county': 'Metro Vancouver Regional District', 'state': 'British Columbia', 'postcode': 'V4C 2L9', 'country': 'Canada', 'country_code': 'ca'}",parking_entrance,Delta,49.156841,-122.9045172,,{},2020-06-27T20:54:12.000-07:00
"{'amenity': 'Sundowner', 'road': '64 Avenue', 'city_district': 'North Delta', 'city': 'Delta', 'county': 'Metro Vancouver Regional District', 'state': 'British Columbia', 'postcode': 'V4E 2B0', 'country': 'Canada', 'country_code': 'ca'}",pub,Delta,49.11914760000001,-122.8914658,Sundowner,{},2019-10-29T06:23:49.000-07:00
"{'amenity': 'Delta Lion Pub', 'road': '111B Street', 'neighbourhood': 'Social Heart', 'suburb': 'North Delta', 'city_district': 'North Delta', 'city': 'Delta', 'county': 'Metro Vancouver Regional District', 'state': 'British Columbia', 'postcode': 'V4C 2L0', 'country': 'Canada', 'country_code': 'ca'}",pub,Delta,49.155029799999994,-122.9135108,Delta Lion Pub,{},2017-05-30T01:28:21.000-07:00
"{'amenity': 'Barnside Brewery Co.', 'house_number': '6655', 'road': '60 Avenue', 'city': 'Delta', 'county': 'Metro Vancouver Regional District', 'state': 'British Columbia', 'postcode': 'V4K 4E2', 'country': 'Canada', 'country_code': 'ca'}",pub,Delta,49.1122045,-123.0389345,Barnside Brewery Co.,"{'addr:housenumber': '6655', 'microbrewery': 'yes', 'addr:street': '60 Avenue'}",2020-05-13T18:01:41.000-07:00
"{'house_number': '5449', 'road': 'Ladner Trunk Road', 'suburb': 'Ladner', 'city_district': 'Ladner', 'city': 'Delta', 'county': 'Metro Vancouver Regional District', 'state': 'British Columbia', 'postcode': 'V4K 1W4', 'country': 'Canada', 'country_code': 'ca'}",pub,Delta,49.0904352,-123.07239129999999,The Landing Pub & Grill,"{'wheelchair': 'limited', 'shop': 'alcohol'}",2017-04-29T06:19:19.000-07:00
"{'amenity': 'One20 Public House', 'house_number': '8037', 'road': 'Scott Road', 'city_district': 'Newton', 'city': 'Delta', 'county': 'Metro Vancouver Regional District', 'state': 'British Columbia', 'postcode': 'V3W 3N2', 'country': 'Canada', 'country_code': 'ca'}",pub,Delta,49.1495495,-122.89088170000001,One20 Public House,"{'addr:province': 'BC', 'addr:housenumber': '8037', 'outdoor_seating': 'yes', 'addr:street': 'Scott Road', 'addr:city': 'Delta'}",2020-06-07T04:33:34.000-07:00
"{'amenity': 'Envision Financial', 'road': 'Library Road', 'retail': 'Tsawwassen Town Centre Mall', 'suburb': 'Tsawwassen', 'city_district': 'Tsawwassen', 'city': 'Delta', 'county': 'Metro Vancouver Regional District', 'state': 'British Columbia', 'postcode': 'V4L 2B0', 'country': 'Canada', 'country_code': 'ca'}",bank,Delta,49.0264851,-123.0709063,Envision Financial,{},2019-08-18T11:22:44.000-07:00
"{'amenity': 'Envision Financial', 'road': 'Woodridge Crescent', 'suburb': 'Sunshine Hills', 'city_district': 'North Delta', 'city': 'Delta', 'county': 'Metro Vancouver Regional District', 'state': 'British Columbia', 'postcode': 'V4E 3G3', 'country': 'Canada', 'country_code': 'ca'}",bank,Delta,49.120611600000004,-122.8913882,Envision Financial,{},2019-08-18T05:55:49.000-07:00
"{'amenity': 'TD Bank', 'house_number': '1323', 'road': '56 Street', 'suburb': 'Tsawwassen', 'city_district': 'Tsawwassen', 'city': 'Delta', 'county': 'Metro Vancouver Regional District', 'state': 'British Columbia', 'postcode': 'V4L 2A6', 'country': 'Canada', 'country_code': 'ca'}",bank,Delta,49.02681550000001,-123.0690344,TD Bank,"{'wheelchair': 'yes', 'addr:housenumber': '1323', 'phone': '+1-604-943-4677', 'addr:street': '56 Street', 'addr:postcode': 'V4L 2A6', 'addr:city': 'Delta'}",2018-08-25T15:00:26.000-07:00
"{'amenity': 'CIBC', 'house_number': '5500', 'road': '12 Avenue', 'suburb': 'Tsawwassen', 'city_district': 'Tsawwassen', 'city': 'Delta', 'county': 'Metro Vancouver Regional District', 'state': 'British Columbia', 'postcode': 'V4M4C2', 'country': 'Canada', 'country_code': 'ca'}",bank,Delta,49.024397,-123.0704242,CIBC,"{'brand:wikidata': 'Q666694', 'brand': 'CIBC', 'brand:wikipedia': 'en:Canadian Imperial Bank of Commerce'}",2019-05-05T23:26:04.000-07:00
"{'amenity': 'BMO', 'road': 'Bridge Street', 'suburb': 'Ladner', 'city_district': 'Ladner', 'city': 'Delta', 'county': 'Metro Vancouver Regional District', 'state': 'British Columbia', 'postcode': 'V4K 2T8', 'country': 'Canada', 'country_code': 'ca'}",bank,Delta,49.091112100000004,-123.0845591,BMO,"{'brand:wikidata': 'Q806693', 'official_name': 'Bank of Montreal', 'brand': 'BMO', 'brand:wikipedia': 'en:Bank of Montreal'}",2019-09-05T07:08:10.000-07:00
"{'amenity': 'CIBC', 'house_number': '5045', 'road': '48 Avenue', 'suburb': 'Ladner', 'city_district': 'Ladner', 'city': 'Delta', 'county': 'Metro Vancouver Regional District', 'state': 'British Columbia', 'postcode': 'V4K 1V0', 'country': 'Canada', 'country_code': 'ca'}",bank,Delta,49.090282,-123.08372140000002,CIBC,"{'brand:wikidata': 'Q666694', 'wheelchair': 'yes', 'addr:housenumber': '5045', 'website': 'https://locations.cibc.com/bc/delta/53235', 'brand:wikipedia': 'en:Canadian Imperial Bank of Commerce', 'drive_through': 'no', 'surveillance': 'indoor', 'addr:street': '48 Avenue', 'atm': 'yes', 'brand': 'CIBC'}",2019-09-05T07:39:04.000-07:00
"{'amenity': 'RBC', 'road': '84 Avenue', 'neighbourhood': 'Social Heart', 'suburb': 'North Delta', 'city_district': 'North Delta', 'city': 'Delta', 'county': 'Metro Vancouver Regional District', 'state': 'British Columbia', 'postcode': 'V4C 2L7', 'country': 'Canada', 'country_code': 'ca'}",bank,Delta,49.155429299999994,-122.91358400000001,RBC,"{'brand:wikidata': 'Q735261', 'official_name': 'Royal Bank of Canada', 'website': 'http://www.rbcroyalbank.com/', 'brand': 'RBC', 'brand:wikipedia': 'en:Royal Bank of Canada'}",2019-06-24T21:43:20.000-07:00
"{'building': 'Scott 72 Centre', 'house_number': '7229', 'road': 'Scott Road', 'suburb': 'Sunshine Hills', 'city_district': 'North Delta', 'city': 'Delta', 'county': 'Metro Vancouver Regional District', 'state': 'British Columbia', 'postcode': 'V3W 3M8', 'country': 'Canada', 'country_code': 'ca'}",bank,Delta,49.1343467,-122.8920179,Vancity,"{'brand:wikidata': 'Q7914085', 'official_name': 'Vancouver City Savings Credit Union', 'brand': 'Vancity', 'brand:wikipedia': 'en:Vancity'}",2019-06-24T21:43:20.000-07:00
"{'amenity': 'RBC', 'road': 'Ladner Trunk Road', 'suburb': 'Ladner', 'city_district': 'Ladner', 'city': 'Delta', 'county': 'Metro Vancouver Regional District', 'state': 'British Columbia', 'postcode': 'V4K 1W4', 'country': 'Canada', 'country_code': 'ca'}",bank,Delta,49.09043070000001,-123.07986899999999,RBC,"{'brand:wikidata': 'Q735261', 'official_name': 'Royal Bank of Canada', 'brand': 'RBC', 'brand:wikipedia': 'en:Royal Bank of Canada'}",2019-07-07T21:50:17.000-07:00
"{'amenity': 'TD Canada Trust', 'house_number': '7317', 'road': 'Scott Road', 'suburb': 'North Delta', 'city_district': 'North Delta', 'city': 'Delta', 'county': 'Metro Vancouver Regional District', 'state': 'British Columbia', 'postcode': 'V3W 3M9', 'country': 'Canada', 'country_code': 'ca'}",bank,Delta,49.13648970000001,-122.8913869,TD Canada Trust,"{'brand:wikidata': 'Q1080670', 'addr:housenumber': '7317', 'brand:wikipedia': 'en:TD Canada Trust', 'addr:street': 'Scott Road', 'brand': 'TD Canada Trust', 'addr:city': 'Delta'}",2019-09-13T13:57:02.000-07:00
"{'amenity': 'TD Canada Trust', 'road': 'Ladner Trunk Road', 'suburb': 'Ladner', 'city_district': 'Ladner', 'city': 'Delta', 'county': 'Metro Vancouver Regional District', 'state': 'British Columbia', 'postcode': 'V4K 1W4', 'country': 'Canada', 'country_code': 'ca'}",bank,Delta,49.0895761,-123.0803803,TD Canada Trust,"{'brand:wikidata': 'Q1080670', 'brand': 'TD Canada Trust', 'brand:wikipedia': 'en:TD Canada Trust'}",2019-07-06T07:48:56.000-07:00
"{'amenity': 'TD Canada Trust', 'road': 'Scott Road', 'city_district': 'North Delta', 'city': 'Delta', 'county': 'Metro Vancouver Regional District', 'state': 'British Columbia', 'postcode': 'V3W 3N2', 'country': 'Canada', 'country_code': 'ca'}",bank,Delta,49.1500989,-122.8907507,TD Canada Trust,"{'brand:wikidata': 'Q1080670', 'atm': 'yes', 'brand': 'TD Canada Trust', 'brand:wikipedia': 'en:TD Canada Trust', 'drive_through': 'yes'}",2019-06-24T21:43:20.000-07:00
"{'shop': '7-Eleven', 'road': '112 Street', 'neighbourhood': 'Social Heart', 'suburb': 'North Delta', 'city_district': 'North Delta', 'city': 'Delta', 'county': 'Metro Vancouver Regional District', 'state': 'British Columbia', 'postcode': 'V4C 2L0', 'country': 'Canada', 'country_code': 'ca'}",bicycle_parking,Delta,49.1566219,-122.91263020000001,,"{'bicycle_parking': 'rack', 'covered': 'no', 'fee': 'no'}",2019-06-25T02:54:10.000-07:00
"{'amenity': 'Shell', 'house_number': '8380', 'road': '112 Street', 'neighbourhood': 'Social Heart', 'suburb': 'North Delta', 'city_district': 'North Delta', 'city': 'Delta', 'county': 'Metro Vancouver Regional District', 'state': 'British Columbia', 'postcode': 'V4C 2L0', 'country': 'Canada', 'country_code': 'ca'}",bicycle_parking,Delta,49.1558509,-122.91175290000001,,"{'bicycle_parking': 'rack', 'covered': 'no', 'fee': 'no'}",2019-06-25T02:54:10.000-07:00
"{'road': 'Millennium Trail', 'city_district': 'Ladner', 'city': 'Delta', 'county': 'Metro Vancouver Regional District', 'state': 'British Columbia', 'postcode': 'V4K 1S8', 'country': 'Canada', 'country_code': 'ca'}",bicycle_parking,Delta,49.1137763,-123.0697719,,{},2020-04-15T22:02:24.000-07:00
"{'road': '36 Avenue', 'city': 'Delta', 'county': 'Metro Vancouver Regional District', 'state': 'British Columbia', 'postcode': 'V4K 3N2', 'country': 'Canada', 'country_code': 'ca'}",bicycle_parking,Delta,49.0685584,-123.07798229999999,,{},2020-05-23T00:49:49.000-07:00
"{'amenity': 'Delta Secondary School', 'road': 'Garry Street', 'suburb': 'Ladner', 'city_district': 'Ladner', 'city': 'Delta', 'county': 'Metro Vancouver Regional District', 'state': 'British Columbia', 'postcode': 'V4K 1V4', 'country': 'Canada', 'country_code': 'ca'}",bicycle_parking,Delta,49.085510600000006,-123.08459950000001,,{'covered': 'yes'},2017-07-24T04:10:55.000-07:00
"{'shop': ""Bosley's"", 'road': 'Ladner Trunk Road', 'suburb': 'Ladner', 'city_district': 'Ladner', 'city': 'Delta', 'county': 'Metro Vancouver Regional District', 'state': 'British Columbia', 'postcode': 'V4K 1W4', 'country': 'Canada', 'country_code': 'ca'}",bicycle_parking,Delta,49.0905411,-123.07801370000001,,{},2018-10-22T02:26:44.000-07:00
"{'amenity': 'Delta Secondary School', 'road': 'Garry Street', 'suburb': 'Ladner', 'city_district': 'Ladner', 'city': 'Delta', 'county': 'Metro Vancouver Regional District', 'state': 'British Columbia', 'postcode': 'V4K 1V4', 'country': 'Canada', 'country_code': 'ca'}",bicycle_parking,Delta,49.08533720000001,-123.0855646,,"{'bicycle_parking': 'rack', 'operator': 'Delta Secondary School', 'covered': 'no'}",2017-07-24T04:10:54.000-07:00
"{'house_number': '265', 'road': 'English Bluff Road', 'suburb': 'Tsawwassen', 'city_district': 'Tsawwassen', 'city': 'Delta', 'county': 'Metro Vancouver Regional District', 'state': 'British Columbia', 'postcode': 'V4M 2P3', 'country': 'Canada', 'country_code': 'ca'}",bicycle_parking,Delta,49.007657200000004,-123.0898163,,{},2019-08-19T22:39:04.000-07:00
"{'amenity': 'Delta Secondary School', 'road': 'Garry Street', 'suburb': 'Ladner', 'city_district': 'Ladner', 'city': 'Delta', 'county': 'Metro Vancouver Regional District', 'state': 'British Columbia', 'postcode': 'V4K 1V4', 'country': 'Canada', 'country_code': 'ca'}",bicycle_parking,Delta,49.08584370000001,-123.0831611,,"{'bicycle_parking': 'rack', 'operator': 'Delta Secondary School', 'covered': 'no'}",2017-07-24T04:10:54.000-07:00
"{'amenity': 'Centennial Beach Cafe', 'road': '12th Ave Dyke Trail', 'suburb': 'Boundary Bay', 'city_district': 'Tsawwassen', 'city': 'Delta', 'county': 'Metro Vancouver Regional District', 'state': 'British Columbia', 'postcode': 'V4L 1V1', 'country': 'Canada', 'country_code': 'ca'}",bicycle_parking,Delta,49.0148002,-123.0400249,,{},2016-05-08T03:59:34.000-07:00
"{'amenity': 'Centennial Beach Cafe', 'road': '12th Ave Dyke Trail', 'suburb': 'Boundary Bay', 'city_district': 'Tsawwassen', 'city': 'Delta', 'county': 'Metro Vancouver Regional District', 'state': 'British Columbia', 'postcode': 'V4L 1V1', 'country': 'Canada', 'country_code': 'ca'}",bicycle_parking,Delta,49.014755,-123.0409709,,{},2016-05-08T03:59:34.000-07:00
"{'road': 'Centennial Beach Entrance Road', 'suburb': 'Boundary Bay', 'city_district': 'Tsawwassen', 'city': 'Delta', 'county': 'Metro Vancouver Regional District', 'state': 'British Columbia', 'postcode': 'V4L 1Z2', 'country': 'Canada', 'country_code': 'ca'}",bicycle_parking,Delta,49.0146145,-123.04113810000001,,{},2016-05-08T03:59:34.000-07:00
"{'highway': '116 St (NB) at 90 Ave', 'road': '116 Street', 'quarter': 'Annieville', 'suburb': 'Kennedy', 'city_district': 'North Delta', 'city': 'Delta', 'county': 'Metro Vancouver Regional District', 'state': 'British Columbia', 'postcode': 'V4C 5X2', 'country': 'Canada', 'country_code': 'ca'}",post_box,Delta,49.1672782,-122.9017857,,{'collection_times': 'Canada Post'},2020-05-25T02:20:34.000-07:00
"{'road': 'Hopcott Road', 'suburb': 'Tilbury Island', 'city': 'Delta', 'county': 'Metro Vancouver Regional District', 'state': 'British Columbia', 'postcode': 'V4G 1K7', 'country': 'Canada', 'country_code': 'ca'}",post_box,Delta,49.1382155,-123.0261507,,{},2020-05-13T01:57:15.000-07:00
"{'house_number': '7550', 'road': '76 Street', 'suburb': 'Tilbury Island', 'city': 'Delta', 'county': 'Metro Vancouver Regional District', 'state': 'British Columbia', 'postcode': 'V4G 1K6', 'country': 'Canada', 'country_code': 'ca'}",post_box,Delta,49.1395385,-123.013423,,{},2020-05-13T05:30:42.000-07:00
"{'amenity': 'Canada Post', 'road': 'Vantage Way', 'suburb': 'Tilbury Island', 'city': 'Delta', 'county': 'Metro Vancouver Regional District', 'state': 'British Columbia', 'postcode': 'V4G 1H1', 'country': 'Canada', 'country_code': 'ca'}",post_box,Delta,49.1357669,-123.02457240000001,Canada Post,{'operator': 'Canada Post'},2020-05-03T02:08:22.000-07:00
"{'amenity': 'Canada Post', 'road': 'Belgrave Way', 'city': 'Delta', 'county': 'Metro Vancouver Regional District', 'state': 'British Columbia', 'postcode': 'V3M 5P8', 'country': 'Canada', 'country_code': 'ca'}",post_box,Delta,49.18018370000001,-122.93409009999998,Canada Post,{'operator': 'Canada Post'},2020-05-01T05:21:02.000-07:00
"{'amenity': 'Canada Post', 'road': 'Cliveden Avenue', 'city': 'Delta', 'county': 'Metro Vancouver Regional District', 'state': 'British Columbia', 'postcode': 'V3M 6G4', 'country': 'Canada', 'country_code': 'ca'}",post_box,Delta,49.1693116,-122.9561493,Canada Post,{'operator': 'Canada Post'},2020-05-01T05:21:02.000-07:00
"{'house_number': '4273', 'road': 'Arthur Drive', 'suburb': 'Ladner', 'city_district': 'Ladner', 'city': 'Delta', 'county': 'Metro Vancouver Regional District', 'state': 'British Columbia', 'postcode': 'V4K 1W4', 'country': 'Canada', 'country_code': 'ca'}",post_box,Delta,49.0807505,-123.07860190000001,,{'operator': 'Canada Post'},2020-04-29T18:08:44.000-07:00
"{'amenity': 'Canada Post', 'road': 'Lyon Road', 'suburb': 'Sunshine Hills', 'city_district': 'North Delta', 'city': 'Delta', 'county': 'Metro Vancouver Regional District', 'state': 'British Columbia', 'postcode': 'V4E 3G3', 'country': 'Canada', 'country_code': 'ca'}",post_box,Delta,49.1194214,-122.9200746,Canada Post,{'operator': 'Canada Post'},2020-04-21T15:29:35.000-07:00
"{'amenity': 'Canada Post', 'road': '72 Avenue', 'suburb': 'Sunshine Hills', 'city_district': 'North Delta', 'city': 'Delta', 'county': 'Metro Vancouver Regional District', 'state': 'British Columbia', 'postcode': 'V4E 1V4', 'country': 'Canada', 'country_code': 'ca'}",post_box,Delta,49.133893900000004,-122.90056990000001,Canada Post,{'operator': 'Canada Post'},2020-04-21T15:29:35.000-07:00
"{'amenity': 'Canada Post', 'road': '12 Avenue', 'suburb': 'Tsawwassen', 'city_district': 'Tsawwassen', 'city': 'Delta', 'county': 'Metro Vancouver Regional District', 'state': 'British Columbia', 'postcode': 'V4M4C2', 'country': 'Canada', 'country_code': 'ca'}",post_box,Delta,49.025412,-123.0694176,Canada Post,{'operator': 'Canada Post'},2020-04-22T15:02:38.000-07:00
"{'amenity': 'Canada Post', 'road': '52A Street', 'retail': 'Trenant Park Square', 'suburb': 'Ladner', 'city_district': 'Ladner', 'city': 'Delta', 'county': 'Metro Vancouver Regional District', 'state': 'British Columbia', 'postcode': 'V4K 1W4', 'country': 'Canada', 'country_code': 'ca'}",post_box,Delta,49.0913106,-123.0790038,Canada Post,{'operator': 'Canada Post'},2020-04-22T15:02:38.000-07:00
"{'house_number': '3775', 'road': 'Arthur Drive', 'suburb': 'Ladner', 'city_district': 'Ladner', 'city': 'Delta', 'county': 'Metro Vancouver Regional District', 'state': 'British Columbia', 'postcode': 'V4K 1W4', 'country': 'Canada', 'country_code': 'ca'}",post_box,Delta,49.07155529999999,-123.0780123,,{'operator': 'Canada Post'},2020-04-29T18:08:44.000-07:00
"{'house_number': '6158', 'road': 'Crescent Place', 'residential': 'Crescent Estates', 'city_district': 'East Ladner', 'city': 'Delta', 'county': 'Metro Vancouver Regional District', 'state': 'British Columbia', 'postcode': 'V4K 3C9', 'country': 'Canada', 'country_code': 'ca'}",post_box,Delta,49.09398710000001,-123.0520957,,{},2020-05-13T17:52:51.000-07:00
"{'highway': 'Ferry Rd (NB) at Westminster Ave', 'road': 'Ferry Road', 'city_district': 'Ladner', 'city': 'Delta', 'county': 'Metro Vancouver Regional District', 'state': 'British Columbia', 'postcode': 'V4K 1W4', 'country': 'Canada', 'country_code': 'ca'}",post_box,Delta,49.0972645,-123.0787784,,{},2020-05-27T05:11:02.000-07:00
"{'house_number': '5201', 'road': 'Schooner Gate', 'residential': 'South Pointe', 'city_district': 'Ladner', 'city': 'Delta', 'county': 'Metro Vancouver Regional District', 'state': 'British Columbia', 'postcode': 'V4K 1S8', 'country': 'Canada', 'country_code': 'ca'}",post_box,Delta,49.1010732,-123.07927350000001,,{},2020-05-06T03:16:57.000-07:00
"{'house_number': '7717', 'road': 'Beedie Road', 'suburb': 'Tilbury Island', 'city': 'Delta', 'county': 'Metro Vancouver Regional District', 'state': 'British Columbia', 'postcode': 'V4G 1A6', 'country': 'Canada', 'country_code': 'ca'}",post_box,Delta,49.14520570000001,-123.0100535,,{},2020-05-19T04:11:53.000-07:00
"{'amenity': 'Canada Post', 'road': '96 Avenue', 'city_district': 'North Delta', 'city': 'Delta', 'county': 'Metro Vancouver Regional District', 'state': 'British Columbia', 'postcode': 'V4C 5X2', 'country': 'Canada', 'country_code': 'ca'}",post_box,Delta,49.1770463,-122.9014466,Canada Post,{'operator': 'Canada Post'},2020-04-21T15:29:35.000-07:00
"{'road': '65B Street', 'city': 'Delta', 'county': 'Metro Vancouver Regional District', 'state': 'British Columbia', 'postcode': 'V4K 4E2', 'country': 'Canada', 'country_code': 'ca'}",post_box,Delta,49.122506200000004,-123.04920659999999,,{},2020-06-06T07:07:56.000-07:00
"{'amenity': 'Hampton Clubhouse', 'road': 'Admiral Way', 'residential': 'Hampton Cove', 'city_district': 'Ladner', 'city': 'Delta', 'county': 'Metro Vancouver Regional District', 'state': 'British Columbia', 'postcode': 'V4K 1S8', 'country': 'Canada', 'country_code': 'ca'}",post_box,Delta,49.113166799999995,-123.0696128,,{},2020-06-06T07:07:56.000-07:00
"{'house_number': '6290', 'road': '64 Street', 'city': 'Delta', 'county': 'Metro Vancouver Regional District', 'state': 'British Columbia', 'postcode': 'V4K 4E2', 'country': 'Canada', 'country_code': 'ca'}",post_box,Delta,49.117660799999996,-123.0459544,,{},2020-06-06T07:07:56.000-07:00
"{'office': 'Westland', 'road': 'Scott Road', 'city_district': 'North Delta', 'city': 'Delta', 'county': 'Metro Vancouver Regional District', 'state': 'British Columbia', 'postcode': 'V3W 3N2', 'country': 'Canada', 'country_code': 'ca'}",post_box,Delta,49.1500836,-122.89115179999999,,{},2020-06-07T04:33:34.000-07:00
"{'road': '36 Avenue', 'city': 'Delta', 'county': 'Metro Vancouver Regional District', 'state': 'British Columbia', 'postcode': 'V4K 3N2', 'country': 'Canada', 'country_code': 'ca'}",post_box,Delta,49.0684405,-123.07815259999998,,{},2020-06-08T05:47:07.000-07:00
"{'road': '34B Avenue', 'city': 'Delta', 'county': 'Metro Vancouver Regional District', 'state': 'British Columbia', 'postcode': 'V4K 5B4', 'country': 'Canada', 'country_code': 'ca'}",post_box,Delta,49.0660516,-123.0783433,,{},2020-06-08T05:47:07.000-07:00
"{'house_number': '4808', 'road': 'Linden Drive', 'suburb': 'Ladner', 'city_district': 'Ladner', 'city': 'Delta', 'county': 'Metro Vancouver Regional District', 'state': 'British Columbia', 'postcode': 'V4K 1W4', 'country': 'Canada', 'country_code': 'ca'}",post_box,Delta,49.090633200000006,-123.0716898,,{},2020-06-08T06:12:23.000-07:00
"{'road': '57B Street', 'city': 'Delta', 'county': 'Metro Vancouver Regional District', 'state': 'British Columbia', 'postcode': 'V4K 5B4', 'country': 'Canada', 'country_code': 'ca'}",post_box,Delta,49.065890700000004,-123.0632825,,{},2020-06-08T06:08:49.000-07:00
"{'house_number': '4630', 'road': '66 Street', 'city_district': 'East Ladner', 'city': 'Delta', 'county': 'Metro Vancouver Regional District', 'state': 'British Columbia', 'postcode': 'V4K 0B4', 'country': 'Canada', 'country_code': 'ca'}",post_box,Delta,49.0873596,-123.04031210000001,,{},2020-06-21T05:48:59.000-07:00
"{'house_number': '6299', 'road': 'Crescent Place', 'residential': 'Crescent Estates', 'city_district': 'East Ladner', 'city': 'Delta', 'county': 'Metro Vancouver Regional District', 'state': 'British Columbia', 'postcode': 'V4K 3C9', 'country': 'Canada', 'country_code': 'ca'}",post_box,Delta,49.093514899999995,-123.04874140000001,,{},2020-05-13T17:52:51.000-07:00
"{'house_number': '6610', 'road': 'London Gate', 'residential': 'London Gate', 'city_district': 'East Ladner', 'city': 'Delta', 'county': 'Metro Vancouver Regional District', 'state': 'British Columbia', 'postcode': 'V4K 0B4', 'country': 'Canada', 'country_code': 'ca'}",post_box,Delta,49.08747329999999,-123.03975030000001,,{},2020-06-21T05:48:59.000-07:00
"{'highway': '66 St (SB) at London Lane', 'road': '66 Street', 'city_district': 'East Ladner', 'city': 'Delta', 'county': 'Metro Vancouver Regional District', 'state': 'British Columbia', 'postcode': 'V4K 0B4', 'country': 'Canada', 'country_code': 'ca'}",post_box,Delta,49.0893784,-123.04031299999998,,{},2020-06-21T05:48:59.000-07:00
"{'amenity': 'Canada Post', 'road': '84 Avenue', 'neighbourhood': 'Social Heart', 'suburb': 'North Delta', 'city_district': 'North Delta', 'city': 'Delta', 'county': 'Metro Vancouver Regional District', 'state': 'British Columbia', 'postcode': 'V4C 2L7', 'country': 'Canada', 'country_code': 'ca'}",post_box,Delta,49.1560029,-122.90203570000001,Canada Post,{'operator': 'Canada Post'},2020-04-21T15:29:35.000-07:00
"{'amenity': 'Canada Post', 'road': 'Brooke Road', 'neighbourhood': 'Sunstone', 'city_district': 'North Delta', 'city': 'Delta', 'county': 'Metro Vancouver Regional District', 'state': 'British Columbia', 'postcode': 'V4C4K2', 'country': 'Canada', 'country_code': 'ca'}",post_box,Delta,49.161084100000004,-122.9215588,Canada Post,{'operator': 'Canada Post'},2020-04-21T15:29:35.000-07:00
"{'house_number': '5912', 'road': '49A Avenue', 'city_district': 'Ladner', 'city': 'Delta', 'county': 'Metro Vancouver Regional District', 'state': 'British Columbia', 'postcode': 'V4K 3C9', 'country': 'Canada', 'country_code': 'ca'}",post_box,Delta,49.0922702,-123.0594826,,{'drive_through': 'no'},2020-04-18T23:53:32.000-07:00
"{'house_number': '4540', 'road': '72 Street', 'city': 'Delta', 'county': 'Metro Vancouver Regional District', 'state': 'British Columbia', 'postcode': 'V4K 0B4', 'country': 'Canada', 'country_code': 'ca'}",post_box,Delta,49.083855299999996,-123.02425020000001,,{},2020-06-12T05:14:05.000-07:00
"{'building': 'Scottsdale Centre', 'house_number': '7031', 'road': 'Scott Road', 'suburb': 'Sunshine Hills', 'city_district': 'North Delta', 'city': 'Delta', 'county': 'Metro Vancouver Regional District', 'state': 'British Columbia', 'postcode': 'V4C 0E1', 'country': 'Canada', 'country_code': 'ca'}",post_box,Delta,49.1313014,-122.8920284,,{'operator': 'Canada Post'},2020-04-20T05:48:39.000-07:00
"{'house_number': '4784', 'road': 'Anderson Place', 'city_district': 'East Ladner', 'city': 'Delta', 'county': 'Metro Vancouver Regional District', 'state': 'British Columbia', 'postcode': 'V4K 0B4', 'country': 'Canada', 'country_code': 'ca'}",post_box,Delta,49.089949,-123.03698600000001,,{},2020-06-12T05:14:05.000-07:00
"{'house_number': '5618', 'road': 'Frigate Road', 'residential': 'Marina Garden Estates', 'city_district': 'Ladner', 'city': 'Delta', 'county': 'Metro Vancouver Regional District', 'state': 'British Columbia', 'postcode': 'V4K 1S8', 'country': 'Canada', 'country_code': 'ca'}",post_box,Delta,49.1060069,-123.07805400000001,,"{'type': 'cmb', 'operator': 'Canada Post'}",2010-03-11T08:28:36.000-08:00
"{'house_number': '5698', 'road': 'Clipper Road', 'residential': 'Marina Garden Estates', 'city_district': 'Ladner', 'city': 'Delta', 'county': 'Metro Vancouver Regional District', 'state': 'British Columbia', 'postcode': 'V4K 1S8', 'country': 'Canada', 'country_code': 'ca'}",post_box,Delta,49.1072401,-123.07679309999999,,"{'type': 'cmb', 'operator': 'Canada Post'}",2010-03-11T08:28:38.000-08:00
"{'leisure': 'Cove Links', 'road': 'Cove Link Road', 'city_district': 'Ladner', 'city': 'Delta', 'county': 'Metro Vancouver Regional District', 'state': 'British Columbia', 'postcode': 'V4K 1S8', 'country': 'Canada', 'country_code': 'ca'}",post_box,Delta,49.1087689,-123.0720511,,"{'type': 'cmb', 'operator': 'Canada Post'}",2010-03-11T08:28:37.000-08:00
"{'highway': 'Admiral Blvd (NB) at Admiral Lane', 'road': 'Admiral Boulevard', 'city_district': 'Ladner', 'city': 'Delta', 'county': 'Metro Vancouver Regional District', 'state': 'British Columbia', 'postcode': 'V4K 1S8', 'country': 'Canada', 'country_code': 'ca'}",post_box,Delta,49.106437299999996,-123.07419099999998,,"{'type': 'cmb', 'operator': 'Canada Post'}",2019-06-09T20:07:26.000-07:00
"{'house_number': '4867', 'road': '59 Street', 'city_district': 'Ladner', 'city': 'Delta', 'county': 'Metro Vancouver Regional District', 'state': 'British Columbia', 'postcode': 'V4K 3C9', 'country': 'Canada', 'country_code': 'ca'}",post_box,Delta,49.091426299999995,-123.05938700000002,,{'operator': 'Canada Post'},2010-03-11T01:28:43.000-08:00
"{'house_number': '5329', 'road': 'Brigantine Road', 'residential': 'Marina Garden Estates', 'city_district': 'Ladner', 'city': 'Delta', 'county': 'Metro Vancouver Regional District', 'state': 'British Columbia', 'postcode': 'V4K 1S8', 'country': 'Canada', 'country_code': 'ca'}",post_box,Delta,49.104437,-123.0766848,,"{'type': 'cmb', 'operator': 'Canada Post'}",2019-06-09T20:37:04.000-07:00
"{'house_number': '5318', 'road': 'Commodore Drive', 'residential': 'Marina Garden Estates', 'city_district': 'Ladner', 'city': 'Delta', 'county': 'Metro Vancouver Regional District', 'state': 'British Columbia', 'postcode': 'V4K 1S8', 'country': 'Canada', 'country_code': 'ca'}",post_box,Delta,49.1055631,-123.07646399999999,,"{'type': 'cmb', 'operator': 'Canada Post'}",2010-03-11T08:28:36.000-08:00
"{'house_number': '4785', 'road': '48 Avenue', 'suburb': 'Ladner', 'city_district': 'Ladner', 'city': 'Delta', 'county': 'Metro Vancouver Regional District', 'state': 'British Columbia', 'postcode': 'V4K 1V4', 'country': 'Canada', 'country_code': 'ca'}",post_box,Delta,49.0902651,-123.0908345,,{},2019-07-06T07:20:12.000-07:00
"{'amenity': 'Tsawwassen Ferry Terminal', 'house_number': '1', 'road': 'Ferry Causeway', 'city': 'Delta', 'county': 'Metro Vancouver Regional District', 'state': 'British Columbia', 'postcode': 'V4M 2P3', 'country': 'Canada', 'country_code': 'ca'}",post_box,Delta,49.0069751,-123.13022050000001,,{},2016-03-06T01:19:45.000-08:00
"{'house_number': '6439', 'road': 'Meadow Place', 'city_district': 'East Ladner', 'city': 'Delta', 'county': 'Metro Vancouver Regional District', 'state': 'British Columbia', 'postcode': 'V4K 5B4', 'country': 'Canada', 'country_code': 'ca'}",post_box,Delta,49.085489100000004,-123.04550079999999,,{},2019-06-23T19:30:57.000-07:00
"{'house_number': '6521', 'road': 'Holly Park Drive', 'residential': 'Kensington Gate', 'city_district': 'East Ladner', 'city': 'Delta', 'county': 'Metro Vancouver Regional District', 'state': 'British Columbia', 'postcode': 'V4K 3C9', 'country': 'Canada', 'country_code': 'ca'}",post_box,Delta,49.086964200000004,-123.0428652,,{},2019-06-23T19:13:04.000-07:00
"{'house_number': '4695', 'road': 'Holly Park Place', 'city_district': 'East Ladner', 'city': 'Delta', 'county': 'Metro Vancouver Regional District', 'state': 'British Columbia', 'postcode': 'V4K 3C9', 'country': 'Canada', 'country_code': 'ca'}",post_box,Delta,49.0890356,-123.05008190000001,,{},2019-06-16T21:41:29.000-07:00
"{'house_number': '6457', 'road': 'Holly Park Drive', 'residential': 'Kensington Gate', 'city_district': 'East Ladner', 'city': 'Delta', 'county': 'Metro Vancouver Regional District', 'state': 'British Columbia', 'postcode': 'V4K 3C9', 'country': 'Canada', 'country_code': 'ca'}",post_box,Delta,49.086948299999996,-123.04471640000001,,{},2019-06-23T19:18:27.000-07:00
"{'house_number': '6401', 'road': 'Kensington Place', 'residential': 'Kensington Gate', 'city_district': 'East Ladner', 'city': 'Delta', 'county': 'Metro Vancouver Regional District', 'state': 'British Columbia', 'postcode': 'V4K 3C9', 'country': 'Canada', 'country_code': 'ca'}",post_box,Delta,49.0882835,-123.046152,,{},2019-06-23T19:30:57.000-07:00
"{'house_number': '4921', 'road': '63A Street', 'city_district': 'East Ladner', 'city': 'Delta', 'county': 'Metro Vancouver Regional District', 'state': 'British Columbia', 'postcode': 'V4K 3C9', 'country': 'Canada', 'country_code': 'ca'}",post_box,Delta,49.092220899999994,-123.04755049999999,,{},2019-06-09T20:45:49.000-07:00
"{'house_number': '5387', 'road': 'Regatta Way', 'residential': 'South Pointe', 'city_district': 'Ladner', 'city': 'Delta', 'county': 'Metro Vancouver Regional District', 'state': 'British Columbia', 'postcode': 'V4K 1S8', 'country': 'Canada', 'country_code': 'ca'}",post_box,Delta,49.1044477,-123.0738013,,{},2019-06-09T20:15:13.000-07:00
"{'house_number': '5208', 'road': 'Windjammer Road', 'residential': 'Marina Garden Estates', 'city_district': 'Ladner', 'city': 'Delta', 'county': 'Metro Vancouver Regional District', 'state': 'British Columbia', 'postcode': 'V4K 1S8', 'country': 'Canada', 'country_code': 'ca'}",post_box,Delta,49.1073473,-123.0784578,,{},2019-06-09T20:37:04.000-07:00
"{'house_number': '6200', 'road': '49 Avenue', 'city_district': 'East Ladner', 'city': 'Delta', 'county': 'Metro Vancouver Regional District', 'state': 'British Columbia', 'postcode': 'V4K 3C9', 'country': 'Canada', 'country_code': 'ca'}",post_box,Delta,49.0919014,-123.05062079999999,,{},2019-06-09T20:40:23.000-07:00
"{'road': 'Cove Inlet Road', 'city_district': 'Ladner', 'city': 'Delta', 'county': 'Metro Vancouver Regional District', 'state': 'British Columbia', 'postcode': 'V4K 1S8', 'country': 'Canada', 'country_code': 'ca'}",post_box,Delta,49.1104935,-123.0723445,,{},2020-06-06T07:00:04.000-07:00
"{'road': '64 Street', 'city_district': 'East Ladner', 'city': 'Delta', 'county': 'Metro Vancouver Regional District', 'state': 'British Columbia', 'postcode': 'V4K 3C9', 'country': 'Canada', 'country_code': 'ca'}",post_box,Delta,49.093469899999995,-123.04629469999999,,{},2019-06-09T20:40:23.000-07:00
"{'amenity': 'Subway', 'house_number': '7351', 'road': 'Scott Road', 'suburb': 'Strawberry Hill', 'city_district': 'Newton', 'city': 'Delta', 'county': 'Metro Vancouver Regional District', 'state': 'British Columbia', 'postcode': 'V4C 0C1', 'country': 'Canada', 'country_code': 'ca'}",dentist,Delta,49.1374528,-122.89092990000002,,{'healthcare': 'dentist'},2019-06-26T07:37:24.000-07:00
"{'amenity': 'Little Caesars', 'road': 'Woodridge Crescent', 'suburb': 'Sunshine Hills', 'city_district': 'North Delta', 'city': 'Delta', 'county': 'Metro Vancouver Regional District', 'state': 'British Columbia', 'postcode': 'V4E 3G3', 'country': 'Canada', 'country_code': 'ca'}",dentist,Delta,49.1206348,-122.89170279999999,,{'healthcare': 'dentist'},2019-08-18T05:55:49.000-07:00
"{'house_number': '4515', 'road': 'Harvest Drive', 'suburb': 'Ladner', 'city_district': 'Ladner', 'city': 'Delta', 'county': 'Metro Vancouver Regional District', 'state': 'British Columbia', 'postcode': 'V4K 5B4', 'country': 'Canada', 'country_code': 'ca'}",dentist,Delta,49.0851794,-123.06463980000001,,{'healthcare': 'dentist'},2019-08-20T07:15:55.000-07:00
"{'amenity': 'Serena Dental Centre', 'road': '84 Avenue', 'neighbourhood': 'Social Heart', 'suburb': 'North Delta', 'city_district': 'North Delta', 'city': 'Delta', 'county': 'Metro Vancouver Regional District', 'state': 'British Columbia', 'postcode': 'V4C 2L7', 'country': 'Canada', 'country_code': 'ca'}",dentist,Delta,49.1555637,-122.91357749999999,Serena Dental Centre,{},2017-05-30T01:28:20.000-07:00
"{'amenity': 'Nordel Dental Clinic', 'road': '83 Avenue', 'neighbourhood': 'Social Heart', 'suburb': 'North Delta', 'city_district': 'North Delta', 'city': 'Delta', 'county': 'Metro Vancouver Regional District', 'state': 'British Columbia', 'postcode': 'V4C 0C8', 'country': 'Canada', 'country_code': 'ca'}",dentist,Delta,49.1545999,-122.91151979999998,Nordel Dental Clinic,{},2017-05-30T02:06:53.000-07:00
"{'house_number': '1464', 'road': '56 Street', 'suburb': 'Tsawwassen', 'city_district': 'Tsawwassen', 'city': 'Delta', 'county': 'Metro Vancouver Regional District', 'state': 'British Columbia', 'postcode': 'V4L 2A6', 'country': 'Canada', 'country_code': 'ca'}",dentist,Delta,49.0294239,-123.06839879999998,,{'healthcare': 'dentist'},2019-08-18T11:22:44.000-07:00
"{'amenity': 'Delta Dental', 'road': 'Scott Road', 'city_district': 'North Delta', 'city': 'Delta', 'county': 'Metro Vancouver Regional District', 'state': 'British Columbia', 'postcode': 'V4C 6R1', 'country': 'Canada', 'country_code': 'ca'}",dentist,Delta,49.1544338,-122.89088670000001,Delta Dental,{'healthcare': 'dentist'},2020-06-07T05:19:25.000-07:00
"{'building': 'Delta Rise', 'road': '80 Avenue', 'city_district': 'North Delta', 'city': 'Delta', 'county': 'Metro Vancouver Regional District', 'state': 'British Columbia', 'postcode': 'V3W 3N2', 'country': 'Canada', 'country_code': 'ca'}",dentist,Delta,49.1487405,-122.8918594,,{'healthcare': 'dentist'},2020-06-07T04:33:34.000-07:00
"{'amenity': 'Surdel Dental', 'road': '80 Avenue', 'city_district': 'North Delta', 'city': 'Delta', 'county': 'Metro Vancouver Regional District', 'state': 'British Columbia', 'postcode': 'V3W 3N2', 'country': 'Canada', 'country_code': 'ca'}",dentist,Delta,49.1501649,-122.892525,Surdel Dental,{'healthcare': 'dentist'},2020-06-07T04:33:34.000-07:00
"{'office': 'Write Type Secretarial Services', 'road': 'Scott Road', 'city_district': 'North Delta', 'city': 'Delta', 'county': 'Metro Vancouver Regional District', 'state': 'British Columbia', 'postcode': 'V4C 6R1', 'country': 'Canada', 'country_code': 'ca'}",dentist,Delta,49.1533809,-122.8908056,,{'healthcare': 'dentist'},2019-09-28T08:28:09.000-07:00
"{'house_number': '5500', 'road': '12 Avenue', 'suburb': 'Tsawwassen', 'city_district': 'Tsawwassen', 'city': 'Delta', 'county': 'Metro Vancouver Regional District', 'state': 'British Columbia', 'postcode': 'V4M4C2', 'country': 'Canada', 'country_code': 'ca'}",dentist,Delta,49.0245382,-123.0704625,Roberts Dental,"{'payment:mastercard': 'yes', 'contact:youtube': 'https://www.youtube.com/channel/UCK-f_m8qBBwFSw1bzCPsqKg', 'wheelchair': 'yes', 'contact:facebook': 'https://www.facebook.com/robertsdental', 'payment:credit_cards': 'yes', 'contact:google_plus': 'https://g.page/RobertsDental/review', 'contact:email': 'info@robertsdental.ca', 'addr:postcode': 'V4M4C2', 'contact:yelp': 'https://www.yelp.ca/biz/roberts-dental-and-facial-rejuvenation-tsawwassen-2', 'operator': 'Dr. Janet Roberts', 'healthcare': 'dentist', 'contact:instagram': 'robertsdental', 'contact:website': 'https://robertsdental.ca/contact/', 'email': 'info@robertsdental.ca', 'contact:twitter': '@DentalRoberts', 'addr:province': 'BC', 'image': 'https://robertsdental.ca/wp-content/uploads/2019/10/cropped-Roberts-Dental-01-3.png', 'website': 'https://robertsdental.ca', 'level': '0', 'addr:country': 'CA', 'payment:cash': 'yes', 'payment:visa': 'yes', 'addr:city': 'Delta', 'addr:housenumber': '5550', 'contact:phone': '16049433343', 'phone': '+1-604-943-3343', 'healthcare:speciality': 'general;cosmetic;dentist;dentistry;cosmetic_dentistry', 'opening_hours': 'Mo 08:30-17:00; Tu 08:30-17:00; We 08:30-17:00; Th 08:30-14:30', 'addr:town': 'Tsawwassen', 'addr:street': '12 Avenue', 'payment:debit_cards': 'yes'}",2020-01-05T23:11:05.000-08:00
"{'amenity': 'Angel Care Dentist', 'house_number': '103-7511', 'road': 'Scott Road', 'suburb': 'Strawberry Hill', 'city_district': 'Newton', 'city': 'Delta', 'county': 'Metro Vancouver Regional District', 'state': 'British Columbia', 'postcode': 'V4C 0C1', 'country': 'Canada', 'country_code': 'ca'}",dentist,Delta,49.139990999999995,-122.8907186,Angel Care Dentist,"{'addr:housenumber': '103-7511', 'addr:street': 'Scott Road', 'healthcare': 'dentist', 'addr:city': 'Delta'}",2019-09-13T13:57:02.000-07:00
"{'amenity': 'Ladner Dental Clinic', 'house_number': '5028', 'road': '47A Avenue', 'suburb': 'Ladner', 'city_district': 'Ladner', 'city': 'Delta', 'county': 'Metro Vancouver Regional District', 'state': 'British Columbia', 'postcode': 'V4K 1V0', 'country': 'Canada', 'country_code': 'ca'}",dentist,Delta,49.08908710000001,-123.08420559999999,Ladner Dental Clinic,"{'opening_hours': 'Mo-Tu,Th 08:00-17:00; We 08:30-20:00; Fr 08:00-15:00', 'addr:housenumber': '5028', 'website': 'https://www.ladnerdental.com', 'addr:street': '47A Avenue', 'healthcare': 'dentist'}",2019-06-27T04:48:06.000-07:00
"{'house_number': '4994', 'road': '48 Avenue', 'suburb': 'Ladner', 'city_district': 'Ladner', 'city': 'Delta', 'county': 'Metro Vancouver Regional District', 'state': 'British Columbia', 'postcode': 'V4K 1V0', 'country': 'Canada', 'country_code': 'ca'}",dentist,Delta,49.0900547,-123.0852043,,{'healthcare': 'dentist'},2019-07-06T08:29:15.000-07:00
"{'amenity': 'Quiznos', 'road': 'Arthur Drive', 'suburb': 'Ladner', 'city_district': 'Ladner', 'city': 'Delta', 'county': 'Metro Vancouver Regional District', 'state': 'British Columbia', 'postcode': 'V4K 2X7', 'country': 'Canada', 'country_code': 'ca'}",dentist,Delta,49.089242999999996,-123.08002749999999,,{'healthcare': 'dentist'},2019-07-06T07:48:56.000-07:00
"{'amenity': 'Maguro Sushi', 'road': '52A Street', 'retail': 'Trenant Park Square', 'suburb': 'Ladner', 'city_district': 'Ladner', 'city': 'Delta', 'county': 'Metro Vancouver Regional District', 'state': 'British Columbia', 'postcode': 'V4K 1W4', 'country': 'Canada', 'country_code': 'ca'}",dentist,Delta,49.091411,-123.0788362,,{'healthcare': 'dentist'},2019-07-07T21:50:17.000-07:00
"{'amenity': 'Ladner', 'road': 'Haviland Street', 'suburb': 'Ladner', 'city_district': 'Ladner', 'city': 'Delta', 'county': 'Metro Vancouver Regional District', 'state': 'British Columbia', 'postcode': 'V4K 1W0', 'country': 'Canada', 'country_code': 'ca'}",post_office,Delta,49.090686700000006,-123.083651,Ladner,"{'brand:wikidata': 'Q1032001', 'addr:postcode': 'V4K 1W0', 'brand': 'Canada Post', 'brand:wikipedia': 'en:Canada Post', 'operator': 'Canada Post'}",2020-02-14T02:58:50.000-08:00
"{'building': 'Scottsdale Centre', 'house_number': '7031', 'road': 'Scott Road', 'suburb': 'Sunshine Hills', 'city_district': 'North Delta', 'city': 'Delta', 'county': 'Metro Vancouver Regional District', 'state': 'British Columbia', 'postcode': 'V4C 0E1', 'country': 'Canada', 'country_code': 'ca'}",post_office,Delta,49.1313803,-122.892251,Scottsdale,"{'brand:wikidata': 'Q1032001', 'addr:postcode': 'V4E 2A0', 'brand': 'Canada Post', 'brand:wikipedia': 'en:Canada Post', 'operator': 'Canada Post'}",2020-04-19T04:02:31.000-07:00
