address,amenity,city,lat,lon,name,tags,timestamp
"{'building': 'Westminster Mall', 'road': 'Fifth Street', 'neighbourhood': 'Queens Park', 'city_district': 'Queens Park', 'city': 'New Westminster', 'county': 'Metro Vancouver Regional District', 'state': 'British Columbia', 'postcode': 'V3L 5H0', 'country': 'Canada', 'country_code': 'ca'}",atm,New Westminster,49.2121346,-122.91883999999999,,{'operator': 'Vancity'},2010-10-23T17:09:11.000-07:00
"{'amenity': 'Starlight Casino', 'house_number': '350', 'road': 'Gifford Street', 'city_district': 'Queensborough', 'city': 'New Westminster', 'county': 'Metro Vancouver Regional District', 'state': 'British Columbia', 'postcode': 'V3M 0G2', 'country': 'Canada', 'country_code': 'ca'}",atm,New Westminster,49.1858703,-122.9559798,,{},2017-03-19T05:56:07.000-07:00
"{'amenity': 'Starlight Casino', 'house_number': '350', 'road': 'Gifford Street', 'city_district': 'Queensborough', 'city': 'New Westminster', 'county': 'Metro Vancouver Regional District', 'state': 'British Columbia', 'postcode': 'V3M 0G2', 'country': 'Canada', 'country_code': 'ca'}",atm,New Westminster,49.1865385,-122.95655149999999,,{},2017-03-19T05:56:13.000-07:00
"{'road': 'Eighth Street', 'neighbourhood': 'Brow of the Hill', 'city_district': 'Brow of the Hill', 'city': 'New Westminster', 'county': 'Metro Vancouver Regional District', 'state': 'British Columbia', 'postcode': 'V3M 3N7', 'country': 'Canada', 'country_code': 'ca'}",car_sharing,New Westminster,49.2030841,-122.91415400000001,,"{'operator': 'Zipcars', 'capacity': '2'}",2017-05-01T04:41:23.000-07:00
"{'highway': 'Braid Station Bay 1', 'road': 'Braid Station Access Road', 'neighbourhood': 'Sapperton', 'city_district': 'McBride Sapperton', 'city': 'New Westminster', 'county': 'Metro Vancouver Regional District', 'state': 'British Columbia', 'postcode': 'V3L 3P2', 'country': 'Canada', 'country_code': 'ca'}",car_sharing,New Westminster,49.23234160000001,-122.882883,,"{'operator': 'Evo', 'capacity': '4'}",2018-03-26T03:22:06.000-07:00
"{'highway': 'Braid Station Bay 1', 'road': 'Braid Station Access Road', 'neighbourhood': 'Sapperton', 'city_district': 'McBride Sapperton', 'city': 'New Westminster', 'county': 'Metro Vancouver Regional District', 'state': 'British Columbia', 'postcode': 'V3L 3P2', 'country': 'Canada', 'country_code': 'ca'}",car_sharing,New Westminster,49.2323376,-122.8831233,,"{'operator': 'Modo', 'capacity': '1'}",2018-03-26T03:22:06.000-07:00
"{'road': 'Eighth Street', 'neighbourhood': 'Brow of the Hill', 'city_district': 'Brow of the Hill', 'city': 'New Westminster', 'county': 'Metro Vancouver Regional District', 'state': 'British Columbia', 'postcode': 'V3M 3N7', 'country': 'Canada', 'country_code': 'ca'}",car_sharing,New Westminster,49.2030211,-122.914274,,"{'operator': 'Evo', 'capacity': '6'}",2018-08-20T03:46:08.000-07:00
"{'house_number': '615', 'road': 'Belmont Street', 'city_district': 'Brow of the Hill', 'city': 'New Westminster', 'county': 'Metro Vancouver Regional District', 'state': 'British Columbia', 'postcode': 'V3M 3C0', 'country': 'Canada', 'country_code': 'ca'}",car_sharing,New Westminster,49.2116471,-122.9205879,,"{'operator': 'Modo', 'capacity': '1'}",2018-08-20T03:46:08.000-07:00
"{'amenity': 'Douglas College New Westminster Campus', 'house_number': '700', 'road': 'Royal Avenue', 'neighbourhood': 'Downtown', 'city_district': 'Downtown', 'city': 'New Westminster', 'county': 'Metro Vancouver Regional District', 'state': 'British Columbia', 'postcode': 'V3M 5Z5', 'country': 'Canada', 'country_code': 'ca'}",car_sharing,New Westminster,49.20374279999999,-122.91413119999999,,"{'operator': 'Evo', 'capacity': '2'}",2017-09-04T18:57:39.000-07:00
"{'amenity': 'New Westminster City Hall', 'road': 'Sixth Street', 'neighbourhood': 'Downtown', 'city_district': 'Downtown', 'city': 'New Westminster', 'county': 'Metro Vancouver Regional District', 'state': 'British Columbia', 'postcode': 'V3L 5B3', 'country': 'Canada', 'country_code': 'ca'}",charging_station,New Westminster,49.2069215,-122.91108020000001,,{},2017-02-28T06:57:47.000-08:00
"{'house_number': '1005', 'road': 'Columbia Street', 'neighbourhood': 'Downtown', 'city_district': 'Downtown', 'city': 'New Westminster', 'county': 'Metro Vancouver Regional District', 'state': 'British Columbia', 'postcode': 'V3M 1C4', 'country': 'Canada', 'country_code': 'ca'}",clinic,New Westminster,49.2007152,-122.9172828,Columbia Medical,{},2014-04-23T18:57:35.000-07:00
"{'amenity': 'Vivacare Medical Clinic', 'house_number': '1024', 'road': 'Ewen Avenue', 'neighbourhood': 'Queensborough', 'city_district': 'Queensborough', 'city': 'New Westminster', 'county': 'Metro Vancouver Regional District', 'state': 'British Columbia', 'postcode': 'V3M 0G2', 'country': 'Canada', 'country_code': 'ca'}",clinic,New Westminster,49.1853908,-122.9481916,Vivacare Medical Clinic,"{'addr:housenumber': '1024', 'addr:street': 'Ewen Avenue', 'phone': '+1-778-397-1655'}",2018-02-10T15:24:53.000-08:00
"{'amenity': 'HIM Health Initiative for Men', 'house_number': '38', 'road': 'Begbie Street', 'neighbourhood': 'Downtown', 'city_district': 'Downtown', 'city': 'New Westminster', 'county': 'Metro Vancouver Regional District', 'state': 'British Columbia', 'postcode': 'V3M 3L9', 'country': 'Canada', 'country_code': 'ca'}",clinic,New Westminster,49.20215,-122.91112050000001,HIM Health Initiative for Men,"{'addr:housenumber': '38', 'addr:street': 'Begbie Street', 'addr:postcode': 'V3M 3L9', 'healthcare': 'clinic', 'addr:city': 'New Westminster'}",2019-09-13T13:57:04.000-07:00
"{'highway': 'Columbia St (WB) at 10 St', 'road': 'Stewardson Way', 'neighbourhood': 'Downtown', 'city_district': 'Downtown', 'city': 'New Westminster', 'county': 'Metro Vancouver Regional District', 'state': 'British Columbia', 'postcode': 'V3M 6H0', 'country': 'Canada', 'country_code': 'ca'}",clinic,New Westminster,49.2004003,-122.91622590000001,Columbia Square Medical & Laser Center,"{'addr:housenumber': '140-1005', 'website': 'http://columbiasquareclinic.com/', 'phone': '+1-604-553-4667', 'addr:street': 'Columbia Street', 'addr:postcode': 'V3M 6H5', 'addr:city': 'West Vancouver'}",2018-02-05T21:28:17.000-08:00
"{'amenity': 'Ostomy Care & Supply Centre', 'house_number': '2004', 'road': 'Eighth Avenue', 'neighbourhood': 'Connaught Heights', 'city_district': 'Connaught Heights', 'city': 'New Westminster', 'county': 'Metro Vancouver Regional District', 'state': 'British Columbia', 'postcode': 'V3M 4W6', 'country': 'Canada', 'country_code': 'ca'}",doctors,New Westminster,49.2026155,-122.9484652,Dr. Water Rebeyka,"{'opening_hours': 'Mo-Fr 09:00-18:00; Sa 09:30-18:00', 'name:en': 'Dr. Water Rebeyka', 'phone': '+1-604-522-4265', 'healthcare': 'doctor'}",2019-07-02T01:10:30.000-07:00
"{'amenity': 'Bowen Therapy Clinics', 'road': 'Sixth Street', 'neighbourhood': 'Queens Park', 'city_district': 'Queens Park', 'city': 'New Westminster', 'county': 'Metro Vancouver Regional District', 'state': 'British Columbia', 'postcode': 'V3L 0C9', 'country': 'Canada', 'country_code': 'ca'}",doctors,New Westminster,49.210701,-122.91749009999998,Bowen Therapy Clinics,"{'phone': '+1-604-777-0426', 'source': 'gps/photo survey'}",2018-10-26T20:29:56.000-07:00
"{'shop': 'Walmart', 'road': 'Sixth Avenue', 'neighbourhood': 'Brow of the Hill', 'city_district': 'Brow of the Hill', 'city': 'New Westminster', 'county': 'Metro Vancouver Regional District', 'state': 'British Columbia', 'postcode': 'V3M 6T9', 'country': 'Canada', 'country_code': 'ca'}",doctors,New Westminster,49.212225200000006,-122.9237983,Gemini,{},2020-03-02T18:51:11.000-08:00
"{'amenity': 'The Cone Zone', 'road': 'Sixth Street', 'city_district': 'Queens Park', 'city': 'New Westminster', 'county': 'Metro Vancouver Regional District', 'state': 'British Columbia', 'postcode': 'V3L 3B9', 'country': 'Canada', 'country_code': 'ca'}",ice_cream,New Westminster,49.213056200000004,-122.91999740000001,The Cone Zone,{},2012-04-17T02:46:17.000-07:00
"{'house_number': '1015', 'road': 'Columbia Street', 'neighbourhood': 'Downtown', 'city_district': 'Downtown', 'city': 'New Westminster', 'county': 'Metro Vancouver Regional District', 'state': 'British Columbia', 'postcode': 'V3M 1C4', 'country': 'Canada', 'country_code': 'ca'}",ice_cream,New Westminster,49.2010176,-122.91723770000002,Menchie's,"{'brand:wikidata': 'Q6816528', 'addr:housenumber': '1015', 'brand:wikipedia': ""en:Menchie's Frozen Yogurt"", 'cuisine': 'frozen_yogurt', 'addr:street': 'Columbia Street', 'brand': ""Menchie's"", 'addr:unit': '101', 'addr:city': 'New Westminster'}",2019-09-13T13:57:07.000-07:00
"{'amenity': 'Queensborough Community Centre', 'house_number': '920', 'road': 'Ewen Avenue', 'neighbourhood': 'Queensborough', 'city_district': 'Queensborough', 'city': 'New Westminster', 'county': 'Metro Vancouver Regional District', 'state': 'British Columbia', 'postcode': 'V3M 5B8', 'country': 'Canada', 'country_code': 'ca'}",library,New Westminster,49.1860678,-122.94352920000001,Queensborough Library,"{'addr:housenumber': '920', 'website': 'https://www.nwpl.ca/', 'phone': '+1-604-636-4450', 'opening_hours': 'Mo-Fr 09:00-19:00; Sa 10:00-17:00; Su 12:00-17:00', 'addr:street': 'Ewen Avenue', 'operator': 'New Westminster Public Library'}",2020-01-09T02:48:51.000-08:00
"{'house_number': '7925', 'road': 'Tenth Avenue', 'neighbourhood': 'Glenbrook', 'city_district': 'Glenbrooke North', 'city': 'New Westminster', 'county': 'Metro Vancouver Regional District', 'state': 'British Columbia', 'postcode': 'V3L 2W6', 'country': 'Canada', 'country_code': 'ca'}",place_of_worship,New Westminster,49.2195913,-122.9270527,,"{'addr:housenumber': '7925', 'addr:street': 'Tenth Avenue', 'religion': 'christian'}",2017-11-05T01:21:01.000-08:00
"{'road': 'Sixth Avenue', 'neighbourhood': 'Brow of the Hill', 'city_district': 'Brow of the Hill', 'city': 'New Westminster', 'county': 'Metro Vancouver Regional District', 'state': 'British Columbia', 'postcode': 'V3M 2M9', 'country': 'Canada', 'country_code': 'ca'}",place_of_worship,New Westminster,49.20809910000001,-122.93000990000002,,{'religion': 'christian'},2012-03-20T05:26:54.000-07:00
"{'road': 'Tenth Street', 'neighbourhood': 'Kelvin', 'city_district': 'Moody Park', 'city': 'New Westminster', 'county': 'Metro Vancouver Regional District', 'state': 'British Columbia', 'postcode': 'V3N 3H7', 'country': 'Canada', 'country_code': 'ca'}",place_of_worship,New Westminster,49.2150165,-122.9332378,,"{'building': 'yes', 'source': 'CanVec 6.0 - NRCan'}",2010-10-18T21:31:19.000-07:00
"{'amenity': 'Olivet Baptist Church', 'road': 'Seventh Street', 'neighbourhood': 'Brow of the Hill', 'city_district': 'Brow of the Hill', 'city': 'New Westminster', 'county': 'Metro Vancouver Regional District', 'state': 'British Columbia', 'postcode': 'V3M 5T5', 'country': 'Canada', 'country_code': 'ca'}",place_of_worship,New Westminster,49.2068115,-122.91423449999999,Olivet Baptist Church,"{'source': 'CanVec 6.0 - NRCan', 'religion': 'christian'}",2016-01-13T03:52:42.000-08:00
"{'road': 'Fifth Street', 'neighbourhood': 'Queens Park', 'city_district': 'Queens Park', 'city': 'New Westminster', 'county': 'Metro Vancouver Regional District', 'state': 'British Columbia', 'postcode': 'V3L 3A9', 'country': 'Canada', 'country_code': 'ca'}",place_of_worship,New Westminster,49.2109625,-122.9162642,,"{'building': 'yes', 'source': 'CanVec 6.0 - NRCan'}",2010-10-18T21:31:08.000-07:00
"{'amenity': 'Mt. Calvary Lutheran Church', 'road': 'Sixth Street', 'neighbourhood': 'Glenbrook', 'city_district': 'Glenbrooke North', 'city': 'New Westminster', 'county': 'Metro Vancouver Regional District', 'state': 'British Columbia', 'postcode': 'V3L 3C5', 'country': 'Canada', 'country_code': 'ca'}",place_of_worship,New Westminster,49.2148799,-122.9219814,Mt. Calvary Lutheran Church,"{'source': 'CanVec 6.0 - NRCan', 'building': 'yes', 'religion': 'christian'}",2010-10-23T17:09:13.000-07:00
"{'amenity': 'New West Community Church', 'house_number': '322', 'road': 'Hospital Street', 'neighbourhood': 'Sapperton', 'city_district': 'McBride Sapperton', 'city': 'New Westminster', 'county': 'Metro Vancouver Regional District', 'state': 'British Columbia', 'postcode': 'V3L 3X1', 'country': 'Canada', 'country_code': 'ca'}",place_of_worship,New Westminster,49.226194799999995,-122.89450910000001,New West Community Church,"{'addr:housenumber': '322', 'addr:street': 'Hospital Street'}",2018-09-24T16:44:00.000-07:00
"{'house_number': '409', 'road': 'Boyne Street', 'neighbourhood': 'Queensborough', 'city_district': 'Queensborough', 'city': 'New Westminster', 'county': 'Metro Vancouver Regional District', 'state': 'British Columbia', 'postcode': 'V3M 5B8', 'country': 'Canada', 'country_code': 'ca'}",recycling,New Westminster,49.19356810000001,-122.94101470000001,Recycle-It,"{'recycling_type': 'centre', 'recycling:glass': 'yes', 'recycling:cans': 'yes'}",2019-01-17T17:12:16.000-08:00
"{'road': 'London Street', 'neighbourhood': 'Kelvin', 'city_district': 'Moody Park', 'city': 'New Westminster', 'county': 'Metro Vancouver Regional District', 'state': 'British Columbia', 'postcode': 'V3N 3N4', 'country': 'Canada', 'country_code': 'ca'}",recycling,New Westminster,49.2160346,-122.9304858,,{},2010-12-22T23:36:46.000-08:00
"{'house_number': '788', 'road': 'Quayside Drive', 'neighbourhood': 'Downtown', 'city_district': 'Downtown', 'city': 'New Westminster', 'county': 'Metro Vancouver Regional District', 'state': 'British Columbia', 'postcode': 'V3M 6B9', 'country': 'Canada', 'country_code': 'ca'}",vending_machine,New Westminster,49.2006935,-122.90978419999999,,{'vending': 'parking_tickets'},2010-11-04T05:03:36.000-07:00
"{'house_number': '788', 'road': 'Quayside Drive', 'neighbourhood': 'Downtown', 'city_district': 'Downtown', 'city': 'New Westminster', 'county': 'Metro Vancouver Regional District', 'state': 'British Columbia', 'postcode': 'V3M 6B9', 'country': 'Canada', 'country_code': 'ca'}",vending_machine,New Westminster,49.20077120000001,-122.9096428,,{'vending': 'parking_tickets'},2019-08-09T06:35:02.000-07:00
"{'amenity': 'Alpine Animal Hospital', 'road': 'Sixth Street', 'neighbourhood': 'Queens Park', 'city_district': 'Queens Park', 'city': 'New Westminster', 'county': 'Metro Vancouver Regional District', 'state': 'British Columbia', 'postcode': 'V3L 0C9', 'country': 'Canada', 'country_code': 'ca'}",veterinary,New Westminster,49.2097727,-122.91663940000001,Alpine Animal Hospital,"{'phone': '+1-604-525-3400', 'source': 'gps/photo survey'}",2018-10-26T20:29:57.000-07:00
"{'house_number': '700', 'road': 'Royal Avenue', 'neighbourhood': 'Downtown', 'city_district': 'Downtown', 'city': 'New Westminster', 'county': 'Metro Vancouver Regional District', 'state': 'British Columbia', 'postcode': 'V3M 5Z5', 'country': 'Canada', 'country_code': 'ca'}",bicycle_repair_station,New Westminster,49.20347260000001,-122.9118422,,{'level': '-1'},2015-02-09T04:25:16.000-08:00
"{'amenity': 'Landmark Cinemas', 'house_number': '800', 'road': 'Carnarvon Street', 'neighbourhood': 'Downtown', 'city_district': 'Downtown', 'city': 'New Westminster', 'county': 'Metro Vancouver Regional District', 'state': 'British Columbia', 'postcode': 'V3M 0C6', 'country': 'Canada', 'country_code': 'ca'}",cinema,New Westminster,49.2005685,-122.9136462,Landmark Cinemas,"{'addr:housenumber': '800', 'website': 'https://www.landmarkcinemas.com/showtimes/new-westminster', 'addr:street': 'Carnarvon Street', 'phone': '+1-604-521-6564'}",2020-01-08T23:16:32.000-08:00
"{'amenity': 'Sprott-Shaw Community College', 'road': 'Eighth Avenue', 'neighbourhood': 'Kelvin', 'city_district': 'Moody Park', 'city': 'New Westminster', 'county': 'Metro Vancouver Regional District', 'state': 'British Columbia', 'postcode': 'V3M 4K4', 'country': 'Canada', 'country_code': 'ca'}",college,New Westminster,49.2104872,-122.93374990000001,Sprott-Shaw Community College,{},2012-02-27T23:10:05.000-08:00
"{'house_number': '780', 'road': '6th Street', 'city_district': 'Glenbrooke North', 'city': 'New Westminster', 'county': 'Metro Vancouver Regional District', 'state': 'British Columbia', 'postcode': 'V3N 3N4', 'country': 'Canada', 'country_code': 'ca'}",compressed_air,New Westminster,49.2158232,-122.9240216,,{},2010-11-08T04:40:46.000-08:00
"{'amenity': 'Esso', 'road': 'Sixth Avenue', 'neighbourhood': 'Brow of the Hill', 'city_district': 'Brow of the Hill', 'city': 'New Westminster', 'county': 'Metro Vancouver Regional District', 'state': 'British Columbia', 'postcode': 'V3M 6T9', 'country': 'Canada', 'country_code': 'ca'}",compressed_air,New Westminster,49.2113534,-122.9230707,,{},2010-12-19T07:21:48.000-08:00
"{'historic': 'Samson V', 'house_number': '888', 'road': 'Quayside Drive', 'neighbourhood': 'Quayside', 'city_district': 'Quayside', 'city': 'New Westminster', 'county': 'Metro Vancouver Regional District', 'state': 'British Columbia', 'postcode': 'V3M 6B9', 'country': 'Canada', 'country_code': 'ca'}",ferry_terminal,New Westminster,49.199459000000004,-122.91181370000001,,"{'ferry': 'yes', 'public_transport': 'platform'}",2018-06-14T05:36:12.000-07:00
"{'road': 'Port Royal Riverfront Walk', 'neighbourhood': 'Port Royal', 'city_district': 'Queensborough', 'city': 'New Westminster', 'county': 'Metro Vancouver Regional District', 'state': 'British Columbia', 'postcode': 'V3M 0B5', 'country': 'Canada', 'country_code': 'ca'}",ferry_terminal,New Westminster,49.193604799999996,-122.9219632,,{},2018-06-14T05:36:12.000-07:00
"{'highway': '6 Ave (EB) at McBride Blvd', 'road': 'East Sixth Avenue', 'city_district': 'McBride Sapperton', 'city': 'New Westminster', 'county': 'Metro Vancouver Regional District', 'state': 'British Columbia', 'postcode': 'V3L 4G6', 'country': 'Canada', 'country_code': 'ca'}",fire_station,New Westminster,49.220300200000004,-122.90828859999999,,{},2010-12-22T23:44:02.000-08:00
"{'road': 'Edinburgh Street', 'neighbourhood': 'West End', 'city_district': 'West End', 'city': 'New Westminster', 'county': 'Metro Vancouver Regional District', 'state': 'British Columbia', 'postcode': 'V3M 4K4', 'country': 'Canada', 'country_code': 'ca'}",fire_station,New Westminster,49.2101068,-122.93675149999999,,{},2012-05-16T23:56:25.000-07:00
"{'shop': 'River Market', 'house_number': '810', 'road': 'Quayside Drive', 'neighbourhood': 'Quayside', 'city_district': 'Quayside', 'city': 'New Westminster', 'county': 'Metro Vancouver Regional District', 'state': 'British Columbia', 'postcode': 'V3M 6B9', 'country': 'Canada', 'country_code': 'ca'}",food_court,New Westminster,49.2000825,-122.91139679999999,,{'level': '1'},2013-03-03T22:23:02.000-08:00
"{'road': 'Fourth Avenue', 'neighbourhood': 'Brow of the Hill', 'city_district': 'Brow of the Hill', 'city': 'New Westminster', 'county': 'Metro Vancouver Regional District', 'state': 'British Columbia', 'postcode': 'V3M 1R2', 'country': 'Canada', 'country_code': 'ca'}",fountain,New Westminster,49.20330300000001,-122.92991299999998,,{},2012-07-14T05:22:52.000-07:00
"{'highway': 'Ewen Ave (WB) at Wood St', 'road': 'Ewen Avenue', 'neighbourhood': 'Queensborough', 'city_district': 'Queensborough', 'city': 'New Westminster', 'county': 'Metro Vancouver Regional District', 'state': 'British Columbia', 'postcode': 'V3M 5B8', 'country': 'Canada', 'country_code': 'ca'}",fountain,New Westminster,49.189413200000004,-122.93988030000001,,{},2016-06-13T06:50:20.000-07:00
"{'leisure': 'Curves', 'road': 'Sixth Street', 'neighbourhood': 'Queens Park', 'city_district': 'Queens Park', 'city': 'New Westminster', 'county': 'Metro Vancouver Regional District', 'state': 'British Columbia', 'postcode': 'V3L 0C9', 'country': 'Canada', 'country_code': 'ca'}",gym,New Westminster,49.2090537,-122.9153899,Curves,{'source': 'gps/photo survey'},2010-10-22T23:18:15.000-07:00
"{'amenity': 'New Westminster Family Place', 'house_number': '93', 'road': 'Cunningham Street', 'neighbourhood': 'Downtown', 'city_district': 'Downtown', 'city': 'New Westminster', 'county': 'Metro Vancouver Regional District', 'state': 'British Columbia', 'postcode': 'V3L 2Z8', 'country': 'Canada', 'country_code': 'ca'}",kindergarten,New Westminster,49.2052497,-122.91009129999999,New Westminster Family Place,{},2012-04-17T02:20:48.000-07:00
"{'amenity': 'Performax Automotive', 'road': 'Twelfth Street', 'neighbourhood': 'Kelvin', 'city_district': 'Moody Park', 'city': 'New Westminster', 'county': 'Metro Vancouver Regional District', 'state': 'British Columbia', 'postcode': 'V3M 4K4', 'country': 'Canada', 'country_code': 'ca'}",car_rep,New Westminster,49.2100006,-122.93313700000002,Performax Automotive,{},2014-05-19T09:19:16.000-07:00
"{'house_number': '287', 'road': ""Nelson's Court"", 'neighbourhood': 'Sapperton', 'city_district': 'McBride Sapperton', 'city': 'New Westminster', 'county': 'Metro Vancouver Regional District', 'state': 'British Columbia', 'postcode': 'V3L 0E3', 'country': 'Canada', 'country_code': 'ca'}",childcare,New Westminster,49.2248856,-122.8913862,Kids & Company,{},2018-04-26T05:25:14.000-07:00
"{'amenity': ""Stefano's"", 'house_number': '315', 'road': 'Columbia Street', 'neighbourhood': 'Downtown', 'city_district': 'Downtown', 'city': 'New Westminster', 'county': 'Metro Vancouver Regional District', 'state': 'British Columbia', 'postcode': 'V3L 1A7', 'country': 'Canada', 'country_code': 'ca'}",police,New Westminster,49.2057021,-122.9038122,,{},2019-05-20T19:28:38.000-07:00
"{'historic': 'Federal Building and Post Office', 'road': 'Church Street', 'neighbourhood': 'Downtown', 'city_district': 'Downtown', 'city': 'New Westminster', 'county': 'Metro Vancouver Regional District', 'state': 'British Columbia', 'postcode': 'V3L 1A9', 'country': 'Canada', 'country_code': 'ca'}",police,New Westminster,49.2035049,-122.90783540000001,,{},2010-11-01T22:59:59.000-07:00
"{'house_number': '287', 'road': ""Nelson's Court"", 'neighbourhood': 'Sapperton', 'city_district': 'McBride Sapperton', 'city': 'New Westminster', 'county': 'Metro Vancouver Regional District', 'state': 'British Columbia', 'postcode': 'V3L 0E3', 'country': 'Canada', 'country_code': 'ca'}",police,New Westminster,49.224961799999996,-122.89196640000002,Metro Vancouver Transit Police,"{'addr:housenumber': '287', 'addr:street': ""Nelson's Court"", 'addr:postcode': 'V3L 0E7', 'addr:unit': '300', 'operator': 'Transit Police', 'addr:city': 'New Westminster'}",2019-09-13T13:56:58.000-07:00
"{'amenity': 'Little Free Library', 'road': 'Fifth Avenue', 'neighbourhood': 'Queens Park', 'city_district': 'Queens Park', 'city': 'New Westminster', 'county': 'Metro Vancouver Regional District', 'state': 'British Columbia', 'postcode': 'V3L 5H0', 'country': 'Canada', 'country_code': 'ca'}",public_bookcase,New Westminster,49.2135437,-122.9155705,Little Free Library,{},2018-06-03T02:07:35.000-07:00
"{'house_number': '188', 'road': 'Star Crescent', 'neighbourhood': 'Port Royal', 'city_district': 'Queensborough', 'city': 'New Westminster', 'county': 'Metro Vancouver Regional District', 'state': 'British Columbia', 'postcode': 'V3M 0B5', 'country': 'Canada', 'country_code': 'ca'}",public_bookcase,New Westminster,49.1957296,-122.92724869999999,,{},2019-03-28T17:29:01.000-07:00
"{'house_number': '257', 'road': 'Salter Street', 'neighbourhood': 'Port Royal', 'city_district': 'Queensborough', 'city': 'New Westminster', 'county': 'Metro Vancouver Regional District', 'state': 'British Columbia', 'postcode': 'V3M 0B5', 'country': 'Canada', 'country_code': 'ca'}",public_bookcase,New Westminster,49.192381299999994,-122.92555390000001,,{},2019-03-28T17:29:01.000-07:00
"{'amenity': 'Sapperton Plaza - Free Little Library #20900', 'road': 'Knox Street', 'neighbourhood': 'Sapperton', 'city_district': 'McBride Sapperton', 'city': 'New Westminster', 'county': 'Metro Vancouver Regional District', 'state': 'British Columbia', 'postcode': 'V3L 3X1', 'country': 'Canada', 'country_code': 'ca'}",public_bookcase,New Westminster,49.228401399999996,-122.89334280000001,Sapperton Plaza - Free Little Library #20900,{'source': 'http://www.waymarking.com/waymarks/WMP1B3_Sapperton_Plaza_Free_Little_Library_20900_New_Westminster_BC'},2018-06-18T04:01:12.000-07:00
"{'road': 'Fourth Avenue', 'neighbourhood': 'Queens Park', 'city_district': 'Queens Park', 'city': 'New Westminster', 'county': 'Metro Vancouver Regional District', 'state': 'British Columbia', 'postcode': 'V3L 3A9', 'country': 'Canada', 'country_code': 'ca'}",public_bookcase,New Westminster,49.2113959,-122.9146882,,{},2020-06-28T02:38:32.000-07:00
"{'house_number': '509', 'road': 'Fourth Street', 'neighbourhood': 'Glenbrook', 'city_district': 'Glenbrooke North', 'city': 'New Westminster', 'county': 'Metro Vancouver Regional District', 'state': 'British Columbia', 'postcode': 'V3L 5H0', 'country': 'Canada', 'country_code': 'ca'}",public_bookcase,New Westminster,49.2135854,-122.9164146,,{},2020-06-28T02:27:11.000-07:00
"{'house_number': '712', 'road': 'Fourth Street', 'neighbourhood': 'Glenbrook', 'city_district': 'Glenbrooke North', 'city': 'New Westminster', 'county': 'Metro Vancouver Regional District', 'state': 'British Columbia', 'postcode': 'V3L 2W6', 'country': 'Canada', 'country_code': 'ca'}",public_bookcase,New Westminster,49.216256099999995,-122.92011699999999,,{},2020-06-28T02:21:52.000-07:00
"{'amenity': 'Starlight Casino', 'house_number': '350', 'road': 'Gifford Street', 'city_district': 'Queensborough', 'city': 'New Westminster', 'county': 'Metro Vancouver Regional District', 'state': 'British Columbia', 'postcode': 'V3M 0G2', 'country': 'Canada', 'country_code': 'ca'}",smoking_area,New Westminster,49.1862943,-122.95566029999999,,{},2018-07-09T07:57:11.000-07:00
"{'highway': 'Free Shuttle Pick-Up', 'road': 'Boyd Street', 'city_district': 'Queensborough', 'city': 'New Westminster', 'county': 'Metro Vancouver Regional District', 'state': 'British Columbia', 'postcode': 'V3M 0G2', 'country': 'Canada', 'country_code': 'ca'}",smoking_area,New Westminster,49.186017299999996,-122.95564420000001,,{},2018-07-09T07:57:11.000-07:00
"{'amenity': 'Royal Canadian Legion - Branch 2 (New Westminster)', 'house_number': '631', 'road': 'Sixth Street', 'neighbourhood': 'Glenbrook', 'city_district': 'Glenbrooke North', 'city': 'New Westminster', 'county': 'Metro Vancouver Regional District', 'state': 'British Columbia', 'postcode': 'V3L 3C5', 'country': 'Canada', 'country_code': 'ca'}",social_centre,New Westminster,49.2141826,-122.92137579999999,Royal Canadian Legion - Branch 2 (New Westminster),"{'addr:housenumber': '631', 'addr:street': 'Sixth Street', 'phone': '+1-604-524-1151'}",2018-06-20T15:09:43.000-07:00
"{'historic': 'Paramount Theatre', 'road': 'McKenzie Street', 'neighbourhood': 'Downtown', 'city_district': 'Downtown', 'city': 'New Westminster', 'county': 'Metro Vancouver Regional District', 'state': 'British Columbia', 'postcode': 'V3M 1A5', 'country': 'Canada', 'country_code': 'ca'}",stripclub,New Westminster,49.202349,-122.90892749999999,,{},2016-11-27T21:27:22.000-08:00
"{'road': 'Twenty-Second Street', 'neighbourhood': 'Connaught Heights', 'city_district': 'Connaught Heights', 'city': 'New Westminster', 'county': 'Metro Vancouver Regional District', 'state': 'British Columbia', 'postcode': 'V3M 4W6', 'country': 'Canada', 'country_code': 'ca'}",taxi,New Westminster,49.1996075,-122.9505612,,{},2019-02-04T04:37:18.000-08:00
"{'building': 'Sixth & Sixth', 'road': 'Sixth Street', 'city_district': 'Queens Park', 'city': 'New Westminster', 'county': 'Metro Vancouver Regional District', 'state': 'British Columbia', 'postcode': 'V3L 3B9', 'country': 'Canada', 'country_code': 'ca'}",telephone,New Westminster,49.2127365,-122.91998400000001,,{},2012-04-11T05:48:44.000-07:00
"{'building': 'Telus', 'road': 'Sixth Street', 'neighbourhood': 'Glenbrook', 'city_district': 'Glenbrooke North', 'city': 'New Westminster', 'county': 'Metro Vancouver Regional District', 'state': 'British Columbia', 'postcode': 'V3L 3C2', 'country': 'Canada', 'country_code': 'ca'}",telephone,New Westminster,49.2135689,-122.9206528,,{'operator': 'Telus'},2010-10-23T17:08:43.000-07:00
"{'shop': 'Walmart', 'house_number': '805', 'road': 'Boyd Street', 'neighbourhood': 'Queensborough', 'city_district': 'Queensborough', 'city': 'New Westminster', 'county': 'Metro Vancouver Regional District', 'state': 'British Columbia', 'postcode': 'V3M 5B0', 'country': 'Canada', 'country_code': 'ca'}",waste_disposal,New Westminster,49.192186799999995,-122.95064840000002,,{},2017-03-19T05:57:14.000-07:00
"{'road': 'Fourth Street', 'neighbourhood': 'Downtown', 'city_district': 'Downtown', 'city': 'New Westminster', 'county': 'Metro Vancouver Regional District', 'state': 'British Columbia', 'postcode': 'V3L 1G2', 'country': 'Canada', 'country_code': 'ca'}",drinking_water,New Westminster,49.208117,-122.9097132,,{},2019-08-26T00:44:51.000-07:00
"{'road': 'Port Royal Riverfront Walk', 'neighbourhood': 'Port Royal', 'city_district': 'Queensborough', 'city': 'New Westminster', 'county': 'Metro Vancouver Regional District', 'state': 'British Columbia', 'postcode': 'V3M 0B5', 'country': 'Canada', 'country_code': 'ca'}",drinking_water,New Westminster,49.1966746,-122.9258625,,{},2014-10-11T23:06:25.000-07:00
"{'tourism': 'Historical Photo Wall', 'road': 'Front Street', 'neighbourhood': 'Downtown', 'city_district': 'Downtown', 'city': 'New Westminster', 'county': 'Metro Vancouver Regional District', 'state': 'British Columbia', 'postcode': 'V3M 1A5', 'country': 'Canada', 'country_code': 'ca'}",drinking_water,New Westminster,49.203621500000004,-122.9048659,,{},2012-07-09T03:06:01.000-07:00
"{'amenity': 'Eats at the Pier', 'road': 'Front Street', 'neighbourhood': 'Downtown', 'city_district': 'Downtown', 'city': 'New Westminster', 'county': 'Metro Vancouver Regional District', 'state': 'British Columbia', 'postcode': 'V3M 1A5', 'country': 'Canada', 'country_code': 'ca'}",drinking_water,New Westminster,49.2037342,-122.90460390000001,,{},2019-05-11T06:07:56.000-07:00
"{'road': 'Chilliwack Street', 'neighbourhood': 'Victory Heights', 'city': 'New Westminster', 'county': 'Metro Vancouver Regional District', 'state': 'British Columbia', 'postcode': 'V3C 2S9', 'country': 'Canada', 'country_code': 'ca'}",drinking_water,New Westminster,49.2295162,-122.9060142,,{},2017-03-09T19:37:49.000-08:00
"{'leisure': 'Justin Morneau Field', 'road': 'Crosstown Greenway', 'neighbourhood': 'Uptown', 'city_district': 'Moody Park', 'city': 'New Westminster', 'county': 'Metro Vancouver Regional District', 'state': 'British Columbia', 'postcode': 'V3M 2M9', 'country': 'Canada', 'country_code': 'ca'}",drinking_water,New Westminster,49.21176970000001,-122.9279143,,{},2016-08-17T23:35:10.000-07:00
"{'building': 'Glasshouse Lofts', 'house_number': '220', 'road': 'Salter Street', 'neighbourhood': 'Port Royal', 'city_district': 'Queensborough', 'city': 'New Westminster', 'county': 'Metro Vancouver Regional District', 'state': 'British Columbia', 'postcode': 'V3M 0B5', 'country': 'Canada', 'country_code': 'ca'}",drinking_water,New Westminster,49.1944025,-122.92303229999999,,{},2016-08-18T06:49:22.000-07:00
"{'amenity': 'Eats at the Pier', 'road': 'Front Street', 'neighbourhood': 'Downtown', 'city_district': 'Downtown', 'city': 'New Westminster', 'county': 'Metro Vancouver Regional District', 'state': 'British Columbia', 'postcode': 'V3M 1A5', 'country': 'Canada', 'country_code': 'ca'}",drinking_water,New Westminster,49.2040291,-122.9044383,,{},2019-06-30T18:50:16.000-07:00
"{'road': 'Central Valley Greenway', 'neighbourhood': 'Sapperton', 'city_district': 'McBride Sapperton', 'city': 'New Westminster', 'county': 'Metro Vancouver Regional District', 'state': 'British Columbia', 'postcode': 'V3L 3X6', 'country': 'Canada', 'country_code': 'ca'}",drinking_water,New Westminster,49.235490399999996,-122.89148119999999,,{},2017-07-10T04:54:35.000-07:00
"{'house_number': '822', 'road': 'Ewen Avenue', 'neighbourhood': 'Queensborough', 'city_district': 'Queensborough', 'city': 'New Westminster', 'county': 'Metro Vancouver Regional District', 'state': 'British Columbia', 'postcode': 'V3M 5B8', 'country': 'Canada', 'country_code': 'ca'}",drinking_water,New Westminster,49.18702070000001,-122.9428522,,{},2017-07-22T20:43:25.000-07:00
"{'road': 'Hamilton Street', 'neighbourhood': 'West End', 'city_district': 'West End', 'city': 'New Westminster', 'county': 'Metro Vancouver Regional District', 'state': 'British Columbia', 'postcode': 'V3M 2S7', 'country': 'Canada', 'country_code': 'ca'}",fuel,New Westminster,49.2095438,-122.9332377,,{},2014-05-19T09:19:17.000-07:00
"{'amenity': 'Shell', 'road': 'Braid Street', 'neighbourhood': 'Brunette Creek', 'city': 'New Westminster', 'county': 'Metro Vancouver Regional District', 'state': 'British Columbia', 'postcode': 'V3L 3P2', 'country': 'Canada', 'country_code': 'ca'}",fuel,New Westminster,49.229658799999996,-122.8792753,,"{'note': 'double-check operator. Also sells lubricants', 'fuel:diesel': 'yes', 'brand': 'Shell'}",2010-10-29T02:10:57.000-07:00
"{'amenity': 'Esso', 'road': 'Sixth Avenue', 'neighbourhood': 'Brow of the Hill', 'city_district': 'Brow of the Hill', 'city': 'New Westminster', 'county': 'Metro Vancouver Regional District', 'state': 'British Columbia', 'postcode': 'V3M 6T9', 'country': 'Canada', 'country_code': 'ca'}",fuel,New Westminster,49.2111765,-122.92321609999999,Esso,"{'brand:wikidata': 'Q867662', 'website': 'https://www.esso.com/', 'brand:wikipedia': 'en:Esso', 'fuel:octane_91': 'yes', 'fuel:octane_89': 'yes', 'fuel:diesel': 'yes', 'brand': 'Esso', 'fuel:octane_87': 'yes', 'operator': 'Esso'}",2019-07-02T01:10:30.000-07:00
"{'amenity': 'Shell', 'road': 'Eighth Avenue', 'neighbourhood': 'Glenbrook', 'city_district': 'Glenbrooke North', 'city': 'New Westminster', 'county': 'Metro Vancouver Regional District', 'state': 'British Columbia', 'postcode': 'V3L 4G6', 'country': 'Canada', 'country_code': 'ca'}",fuel,New Westminster,49.22241079999999,-122.91254740000002,Shell,"{'website': 'https://www.shell.ca/', 'shop': 'yes', 'fuel:octane_91': 'yes', 'fuel:octane_89': 'yes', 'brand': 'Shell', 'fuel:octane_87': 'yes', 'operator': 'Shell'}",2019-03-19T06:11:24.000-07:00
"{'amenity': 'Petro-Canada', 'road': 'Tenth Avenue', 'neighbourhood': 'Uptown', 'city_district': 'Moody Park', 'city': 'New Westminster', 'county': 'Metro Vancouver Regional District', 'state': 'British Columbia', 'postcode': 'V3N 3N4', 'country': 'Canada', 'country_code': 'ca'}",fuel,New Westminster,49.2172533,-122.93134740000002,Petro-Canada,"{'brand:wikidata': 'Q1208279', 'website': 'http://retail.petro-canada.ca/', 'brand:wikipedia': 'en:Petro-Canada', 'fuel:octane_91': 'yes', 'fuel:octane_89': 'yes', 'fuel:diesel': 'yes', 'brand': 'Petro-Canada', 'fuel:octane_87': 'yes', 'operator': 'Petro-Canada'}",2019-07-10T04:41:29.000-07:00
"{'building': 'Health Care Centre', 'road': 'Keary Street', 'neighbourhood': 'Sapperton', 'city_district': 'McBride Sapperton', 'city': 'New Westminster', 'county': 'Metro Vancouver Regional District', 'state': 'British Columbia', 'postcode': 'V3L 0E7', 'country': 'Canada', 'country_code': 'ca'}",parking,New Westminster,49.2263419,-122.8907169,,"{'parking': 'underground', 'fee': 'yes'}",2012-03-08T04:45:35.000-08:00
"{'amenity': 'Front Street Parkade', 'road': 'Church Street', 'neighbourhood': 'Downtown', 'city_district': 'Downtown', 'city': 'New Westminster', 'county': 'Metro Vancouver Regional District', 'state': 'British Columbia', 'postcode': 'V3L 1A9', 'country': 'Canada', 'country_code': 'ca'}",parking,New Westminster,49.204316,-122.90492330000001,,{},2016-11-27T21:29:07.000-08:00
"{'amenity': 'P1', 'road': ""Nelson's Crescent"", 'city_district': 'McBride Sapperton', 'city': 'New Westminster', 'county': 'Metro Vancouver Regional District', 'state': 'British Columbia', 'postcode': 'V3L 0H4', 'country': 'Canada', 'country_code': 'ca'}",parking,New Westminster,49.2238093,-122.8924838,P1,"{'parking': 'underground', 'maxstay': '2 hours'}",2013-06-14T04:23:56.000-07:00
"{'building': 'Brewery District', 'road': ""Nelson's Court"", 'neighbourhood': 'Sapperton', 'city_district': 'McBride Sapperton', 'city': 'New Westminster', 'county': 'Metro Vancouver Regional District', 'state': 'British Columbia', 'postcode': 'V3L 0E3', 'country': 'Canada', 'country_code': 'ca'}",parking,New Westminster,49.223866799999996,-122.89248729999998,P2,"{'parking': 'underground', 'maxstay': '2 hours', 'access': 'private'}",2013-06-14T04:23:56.000-07:00
"{'road': 'Ginger Drive', 'city_district': 'McBride Sapperton', 'city': 'New Westminster', 'county': 'Metro Vancouver Regional District', 'state': 'British Columbia', 'postcode': 'V3L 4G6', 'country': 'Canada', 'country_code': 'ca'}",parking,New Westminster,49.21849520000001,-122.9060834,,{'parking': 'underground'},2011-11-09T03:24:20.000-08:00
"{'road': 'Francis Way', 'city_district': 'McBride Sapperton', 'city': 'New Westminster', 'county': 'Metro Vancouver Regional District', 'state': 'British Columbia', 'postcode': 'V3L 5P5', 'country': 'Canada', 'country_code': 'ca'}",parking,New Westminster,49.2144831,-122.8967793,,{'parking': 'underground'},2011-11-09T03:24:20.000-08:00
"{'house_number': '800', 'road': 'Carnarvon Street', 'neighbourhood': 'Downtown', 'city_district': 'Downtown', 'city': 'New Westminster', 'county': 'Metro Vancouver Regional District', 'state': 'British Columbia', 'postcode': 'V3M 0C6', 'country': 'Canada', 'country_code': 'ca'}",parking,New Westminster,49.2006235,-122.91348719999999,,"{'parking': 'multi-storey', 'addr:housenumber': '800', 'access': 'permissive', 'addr:street': 'Carnarvon Street', 'fee': 'yes'}",2016-11-27T21:45:14.000-08:00
"{'historic': 'Paramount Theatre', 'road': 'McKenzie Street', 'neighbourhood': 'Downtown', 'city_district': 'Downtown', 'city': 'New Westminster', 'county': 'Metro Vancouver Regional District', 'state': 'British Columbia', 'postcode': 'V3M 1A5', 'country': 'Canada', 'country_code': 'ca'}",parking,New Westminster,49.2024343,-122.90831670000001,,{},2019-08-10T02:48:23.000-07:00
"{'road': 'Brunette-Fraser Regional Greenway', 'city_district': 'McBride Sapperton', 'city': 'New Westminster', 'county': 'Metro Vancouver Regional District', 'state': 'British Columbia', 'postcode': 'V3L 3H7', 'country': 'Canada', 'country_code': 'ca'}",parking,New Westminster,49.218355100000004,-122.8928193,,{},2013-10-14T22:50:02.000-07:00
"{'building': 'Peninsula', 'road': 'Port Royal Riverfront Walk', 'neighbourhood': 'Port Royal', 'city_district': 'Queensborough', 'city': 'New Westminster', 'county': 'Metro Vancouver Regional District', 'state': 'British Columbia', 'postcode': 'V3M 0B5', 'country': 'Canada', 'country_code': 'ca'}",parking,New Westminster,49.19487210000001,-122.922041,,"{'parking': 'underground', 'access': 'private'}",2017-07-22T03:53:14.000-07:00
"{'building': 'Glasshouse Lofts', 'house_number': '220', 'road': 'Salter Street', 'neighbourhood': 'Port Royal', 'city_district': 'Queensborough', 'city': 'New Westminster', 'county': 'Metro Vancouver Regional District', 'state': 'British Columbia', 'postcode': 'V3M 0B5', 'country': 'Canada', 'country_code': 'ca'}",parking,New Westminster,49.1947661,-122.92221799999999,,"{'parking': 'underground', 'access': 'private'}",2017-07-22T03:53:14.000-07:00
"{'building': 'Flow', 'house_number': '230', 'road': 'Salter Street', 'neighbourhood': 'Port Royal', 'city_district': 'Queensborough', 'city': 'New Westminster', 'county': 'Metro Vancouver Regional District', 'state': 'British Columbia', 'postcode': 'V3M 0B5', 'country': 'Canada', 'country_code': 'ca'}",parking,New Westminster,49.19344270000001,-122.9234625,,"{'parking': 'underground', 'access': 'private'}",2017-07-22T03:53:14.000-07:00
"{'house_number': '700', 'road': 'Royal Avenue', 'neighbourhood': 'Downtown', 'city_district': 'Downtown', 'city': 'New Westminster', 'county': 'Metro Vancouver Regional District', 'state': 'British Columbia', 'postcode': 'V3M 5Z5', 'country': 'Canada', 'country_code': 'ca'}",parking_entrance,New Westminster,49.202982,-122.91249520000001,,{},2013-11-21T01:44:42.000-08:00
"{'house_number': '700', 'road': 'Royal Avenue', 'neighbourhood': 'Downtown', 'city_district': 'Downtown', 'city': 'New Westminster', 'county': 'Metro Vancouver Regional District', 'state': 'British Columbia', 'postcode': 'V3M 5Z5', 'country': 'Canada', 'country_code': 'ca'}",parking_entrance,New Westminster,49.2031845,-122.91212009999998,,{},2013-11-21T01:44:42.000-08:00
"{'tourism': 'Anvil Centre', 'house_number': '777', 'road': 'Columbia Street', 'neighbourhood': 'Downtown', 'city_district': 'Downtown', 'city': 'New Westminster', 'county': 'Metro Vancouver Regional District', 'state': 'British Columbia', 'postcode': 'V3M 3L9', 'country': 'Canada', 'country_code': 'ca'}",parking_entrance,New Westminster,49.201630200000004,-122.9117763,,{},2014-10-26T22:11:52.000-07:00
"{'house_number': '700', 'road': 'Royal Avenue', 'neighbourhood': 'Downtown', 'city_district': 'Downtown', 'city': 'New Westminster', 'county': 'Metro Vancouver Regional District', 'state': 'British Columbia', 'postcode': 'V3M 5Z5', 'country': 'Canada', 'country_code': 'ca'}",parking_entrance,New Westminster,49.2034723,-122.91169579999999,,{},2014-10-26T22:18:36.000-07:00
"{'building': 'Regatta', 'house_number': '240', 'road': 'Salter Street', 'neighbourhood': 'Port Royal', 'city_district': 'Queensborough', 'city': 'New Westminster', 'county': 'Metro Vancouver Regional District', 'state': 'British Columbia', 'postcode': 'V3M 0B5', 'country': 'Canada', 'country_code': 'ca'}",parking_entrance,New Westminster,49.192781,-122.9242508,,"{'parking': 'underground', 'access': 'private'}",2017-07-22T03:53:16.000-07:00
"{'building': 'Portage', 'house_number': '260', 'road': 'Salter Street', 'neighbourhood': 'Port Royal', 'city_district': 'Queensborough', 'city': 'New Westminster', 'county': 'Metro Vancouver Regional District', 'state': 'British Columbia', 'postcode': 'V3M 0B5', 'country': 'Canada', 'country_code': 'ca'}",parking_entrance,New Westminster,49.1915358,-122.92588149999999,,"{'parking': 'underground', 'access': 'private'}",2017-07-22T04:17:04.000-07:00
"{'building': 'Stirling Place', 'house_number': '719', 'road': 'Princess Street', 'neighbourhood': 'Uptown', 'city_district': 'Moody Park', 'city': 'New Westminster', 'county': 'Metro Vancouver Regional District', 'state': 'British Columbia', 'postcode': 'V3M 6T9', 'country': 'Canada', 'country_code': 'ca'}",parking_entrance,New Westminster,49.213406,-122.9225041,,{},2012-03-20T05:41:04.000-07:00
"{'amenity': 'Front Street Parkade', 'road': 'Church Street', 'neighbourhood': 'Downtown', 'city_district': 'Downtown', 'city': 'New Westminster', 'county': 'Metro Vancouver Regional District', 'state': 'British Columbia', 'postcode': 'V3L 1A9', 'country': 'Canada', 'country_code': 'ca'}",parking_entrance,New Westminster,49.204182,-122.9047528,,{},2016-11-27T21:40:33.000-08:00
"{'amenity': 'Front Street Parkade', 'road': 'Church Street', 'neighbourhood': 'Downtown', 'city_district': 'Downtown', 'city': 'New Westminster', 'county': 'Metro Vancouver Regional District', 'state': 'British Columbia', 'postcode': 'V3L 1A9', 'country': 'Canada', 'country_code': 'ca'}",parking_entrance,New Westminster,49.2042901,-122.904972,,{},2016-11-27T21:40:33.000-08:00
"{'amenity': 'Front Street Parkade', 'road': 'Church Street', 'neighbourhood': 'Downtown', 'city_district': 'Downtown', 'city': 'New Westminster', 'county': 'Metro Vancouver Regional District', 'state': 'British Columbia', 'postcode': 'V3L 1A9', 'country': 'Canada', 'country_code': 'ca'}",parking_entrance,New Westminster,49.202737299999995,-122.90737220000001,,{},2015-06-13T00:32:09.000-07:00
"{'amenity': 'Front Street Parkade', 'road': 'Church Street', 'neighbourhood': 'Downtown', 'city_district': 'Downtown', 'city': 'New Westminster', 'county': 'Metro Vancouver Regional District', 'state': 'British Columbia', 'postcode': 'V3L 1A9', 'country': 'Canada', 'country_code': 'ca'}",parking_entrance,New Westminster,49.2034692,-122.9060101,,{},2015-06-13T00:32:09.000-07:00
"{'shop': 'Royal City Centre', 'house_number': '610', 'road': 'Sixth Street', 'neighbourhood': 'Glenbrook', 'city_district': 'Glenbrooke North', 'city': 'New Westminster', 'county': 'Metro Vancouver Regional District', 'state': 'British Columbia', 'postcode': 'V3L 3C2', 'country': 'Canada', 'country_code': 'ca'}",parking_entrance,New Westminster,49.2130098,-122.9222983,,{'level': '3'},2017-07-13T04:44:39.000-07:00
"{'road': 'Port Royal River Trail', 'neighbourhood': 'Port Royal', 'city_district': 'Queensborough', 'city': 'New Westminster', 'county': 'Metro Vancouver Regional District', 'state': 'British Columbia', 'postcode': 'V3M 5B4', 'country': 'Canada', 'country_code': 'ca'}",parking_entrance,New Westminster,49.189628799999994,-122.92904540000002,,{'access': 'private'},2017-12-06T07:00:37.000-08:00
"{'building': 'Harborview', 'house_number': '550', 'road': 'Royal Avenue', 'neighbourhood': 'Downtown', 'city_district': 'Downtown', 'city': 'New Westminster', 'county': 'Metro Vancouver Regional District', 'state': 'British Columbia', 'postcode': 'V3L 5B3', 'country': 'Canada', 'country_code': 'ca'}",parking_entrance,New Westminster,49.20562460000001,-122.9098881,,{},2012-04-17T02:20:49.000-07:00
"{'shop': 'Walmart', 'road': 'Sixth Avenue', 'neighbourhood': 'Brow of the Hill', 'city_district': 'Brow of the Hill', 'city': 'New Westminster', 'county': 'Metro Vancouver Regional District', 'state': 'British Columbia', 'postcode': 'V3M 6T9', 'country': 'Canada', 'country_code': 'ca'}",parking_entrance,New Westminster,49.2115854,-122.9234452,,{},2012-07-08T23:15:35.000-07:00
"{'building': 'Viceroy', 'house_number': '608', 'road': 'Belmont Street', 'city_district': 'Brow of the Hill', 'city': 'New Westminster', 'county': 'Metro Vancouver Regional District', 'state': 'British Columbia', 'postcode': 'V3M 0G8', 'country': 'Canada', 'country_code': 'ca'}",parking_entrance,New Westminster,49.211608899999995,-122.92006370000001,,{'parking': 'underground'},2017-03-17T05:09:16.000-07:00
"{'amenity': 'Starlight Casino', 'house_number': '350', 'road': 'Gifford Street', 'city_district': 'Queensborough', 'city': 'New Westminster', 'county': 'Metro Vancouver Regional District', 'state': 'British Columbia', 'postcode': 'V3M 0G2', 'country': 'Canada', 'country_code': 'ca'}",parking_entrance,New Westminster,49.186589700000006,-122.95536570000002,,{},2017-12-14T08:00:31.000-08:00
"{'building': 'Regal Manor', 'house_number': '316', 'road': 'Cedar Street', 'neighbourhood': 'Sapperton', 'city_district': 'McBride Sapperton', 'city': 'New Westminster', 'county': 'Metro Vancouver Regional District', 'state': 'British Columbia', 'postcode': 'V3L 3X6', 'country': 'Canada', 'country_code': 'ca'}",parking_entrance,New Westminster,49.2297745,-122.8936981,,{'access': 'private'},2018-03-18T22:34:53.000-07:00
"{'amenity': 'Front Street Parkade', 'road': 'Church Street', 'neighbourhood': 'Downtown', 'city_district': 'Downtown', 'city': 'New Westminster', 'county': 'Metro Vancouver Regional District', 'state': 'British Columbia', 'postcode': 'V3L 1A9', 'country': 'Canada', 'country_code': 'ca'}",parking_entrance,New Westminster,49.2027571,-122.90733590000002,,{},2019-08-09T07:52:25.000-07:00
"{'building': 'Paddlers Landing', 'house_number': '250', 'road': 'Salter Street', 'neighbourhood': 'Port Royal', 'city_district': 'Queensborough', 'city': 'New Westminster', 'county': 'Metro Vancouver Regional District', 'state': 'British Columbia', 'postcode': 'V3M 0B5', 'country': 'Canada', 'country_code': 'ca'}",parking_entrance,New Westminster,49.1917655,-122.92544509999999,,"{'parking': 'underground', 'access': 'private'}",2017-07-22T04:17:03.000-07:00
"{'house_number': '610', 'road': 'Sixth Street', 'neighbourhood': 'Glenbrook', 'city_district': 'Glenbrooke North', 'city': 'New Westminster', 'county': 'Metro Vancouver Regional District', 'state': 'British Columbia', 'postcode': 'V3L 3C2', 'country': 'Canada', 'country_code': 'ca'}",parking_entrance,New Westminster,49.2124365,-122.9219304,,{'level': '-1'},2017-07-13T04:44:39.000-07:00
"{'house_number': '610', 'road': 'Sixth Street', 'neighbourhood': 'Glenbrook', 'city_district': 'Glenbrooke North', 'city': 'New Westminster', 'county': 'Metro Vancouver Regional District', 'state': 'British Columbia', 'postcode': 'V3L 3C5', 'country': 'Canada', 'country_code': 'ca'}",parking_entrance,New Westminster,49.2120467,-122.9226551,,{'level': '-2'},2017-07-13T04:44:39.000-07:00
"{'amenity': 'Paddlewheeler Pub', 'house_number': '126-810', 'road': 'Quayside Drive', 'neighbourhood': 'Quayside', 'city_district': 'Quayside', 'city': 'New Westminster', 'county': 'Metro Vancouver Regional District', 'state': 'British Columbia', 'postcode': 'V3M 6B9', 'country': 'Canada', 'country_code': 'ca'}",pub,New Westminster,49.19993270000001,-122.91177250000001,Paddlewheeler Pub,"{'addr:housenumber': '126-810', 'website': 'http://paddlewheelerpub.ca/', 'phone': '+1-604-524-1894', 'level': '1', 'outdoor_seating': 'yes', 'addr:street': 'Quayside Drive'}",2017-01-04T21:19:21.000-08:00
"{'house_number': '615', 'road': 'Belmont Street', 'city_district': 'Brow of the Hill', 'city': 'New Westminster', 'county': 'Metro Vancouver Regional District', 'state': 'British Columbia', 'postcode': 'V3M 3C0', 'country': 'Canada', 'country_code': 'ca'}",pub,New Westminster,49.211985399999996,-122.9211331,Moonrakers Pub,"{'addr:housenumber': '525', 'addr:street': '7th Street', 'source': 'gps/photo survey', 'addr:city': 'New Westminster'}",2012-04-25T04:39:33.000-07:00
"{'amenity': ""River's Reach Pub"", 'road': 'Blackford Street', 'neighbourhood': 'Brow of the Hill', 'city_district': 'Brow of the Hill', 'city': 'New Westminster', 'county': 'Metro Vancouver Regional District', 'state': 'British Columbia', 'postcode': 'V3L 3A9', 'country': 'Canada', 'country_code': 'ca'}",pub,New Westminster,49.2094623,-122.9160017,River's Reach Pub,{'source': 'gps/photo survey'},2015-04-29T21:00:04.000-07:00
"{'amenity': 'The Thirsty Duck', 'house_number': '606', 'road': 'Twelfth Street', 'neighbourhood': 'Kelvin', 'city_district': 'Moody Park', 'city': 'New Westminster', 'county': 'Metro Vancouver Regional District', 'state': 'British Columbia', 'postcode': 'V3M 4K4', 'country': 'Canada', 'country_code': 'ca'}",pub,New Westminster,49.2077342,-122.9309659,The Thirsty Duck,"{'addr:housenumber': '606', 'addr:street': '12th Street'}",2012-02-18T18:40:07.000-08:00
"{'house_number': '287', 'road': ""Nelson's Court"", 'neighbourhood': 'Sapperton', 'city_district': 'McBride Sapperton', 'city': 'New Westminster', 'county': 'Metro Vancouver Regional District', 'state': 'British Columbia', 'postcode': 'V3L 0E3', 'country': 'Canada', 'country_code': 'ca'}",pub,New Westminster,49.2248844,-122.8926368,Browns Socialhouse,"{'internet_access': 'wlan', 'website': 'https://www.brownsrestaurantgroup.com/brownssocialhouse/category/locations/bc-lower-mainland/brewery-district-new-west/'}",2019-03-17T02:32:44.000-07:00
"{'shop': 'Royal City Centre', 'house_number': '610', 'road': 'Sixth Street', 'neighbourhood': 'Glenbrook', 'city_district': 'Glenbrooke North', 'city': 'New Westminster', 'county': 'Metro Vancouver Regional District', 'state': 'British Columbia', 'postcode': 'V3L 3C2', 'country': 'Canada', 'country_code': 'ca'}",bank,New Westminster,49.21323710000001,-122.92121350000001,BMO,"{'brand:wikidata': 'Q806693', 'official_name': 'Bank of Montreal', 'brand': 'BMO', 'brand:wikipedia': 'en:Bank of Montreal'}",2019-07-02T01:10:30.000-07:00
"{'building': 'Westminster Mall', 'road': 'Belmont Street', 'city_district': 'Queens Park', 'city': 'New Westminster', 'county': 'Metro Vancouver Regional District', 'state': 'British Columbia', 'postcode': 'V3M 3C0', 'country': 'Canada', 'country_code': 'ca'}",bank,New Westminster,49.21280170000001,-122.9195831,TD Canada Trust,"{'brand:wikidata': 'Q1080670', 'wheelchair': 'yes', 'atm': 'yes', 'brand': 'TD Canada Trust', 'brand:wikipedia': 'en:TD Canada Trust'}",2019-04-13T05:58:41.000-07:00
"{'amenity': 'New Westminster Savings', 'road': 'Sixth Avenue', 'neighbourhood': 'Queens Park', 'city_district': 'Queens Park', 'city': 'New Westminster', 'county': 'Metro Vancouver Regional District', 'state': 'British Columbia', 'postcode': 'V3L 5H0', 'country': 'Canada', 'country_code': 'ca'}",bank,New Westminster,49.213414,-122.9202845,New Westminster Savings,{'atm': 'yes'},2010-10-23T17:08:48.000-07:00
"{'building': 'Brewery District', 'road': ""Nelson's Court"", 'neighbourhood': 'Sapperton', 'city_district': 'McBride Sapperton', 'city': 'New Westminster', 'county': 'Metro Vancouver Regional District', 'state': 'British Columbia', 'postcode': 'V3L 0E3', 'country': 'Canada', 'country_code': 'ca'}",bank,New Westminster,49.224419899999994,-122.8925771,TD Canada Trust,"{'wheelchair': 'yes', 'addr:housenumber': '280', 'addr:street': 'East Columbia Street', 'atm': 'yes', 'addr:postcode': 'V3L 0E3'}",2018-07-03T18:16:23.000-07:00
"{'amenity': 'G&F Financial', 'road': 'Sixth Street', 'neighbourhood': 'Glenbrook', 'city_district': 'Glenbrooke North', 'city': 'New Westminster', 'county': 'Metro Vancouver Regional District', 'state': 'British Columbia', 'postcode': 'V3L 3C5', 'country': 'Canada', 'country_code': 'ca'}",bank,New Westminster,49.2154412,-122.923437,G&F Financial,"{'website': 'https://www.gffg.com/', 'atm': 'yes'}",2019-02-18T01:14:16.000-08:00
"{'house_number': '66', 'road': 'Tenth Street', 'neighbourhood': 'Downtown', 'city_district': 'Downtown', 'city': 'New Westminster', 'county': 'Metro Vancouver Regional District', 'state': 'British Columbia', 'postcode': 'V3M 6H0', 'country': 'Canada', 'country_code': 'ca'}",bank,New Westminster,49.200940100000004,-122.91628870000001,Bank of Montreal,"{'brand:wikidata': 'Q806693', 'atm': 'yes', 'brand': 'Bank of Montreal', 'brand:wikipedia': 'en:Bank of Montreal'}",2019-02-23T06:57:21.000-08:00
"{'amenity': 'TD Canada Trust', 'road': 'Stewardson Way', 'neighbourhood': 'Downtown', 'city_district': 'Downtown', 'city': 'New Westminster', 'county': 'Metro Vancouver Regional District', 'state': 'British Columbia', 'postcode': 'V3M 6H0', 'country': 'Canada', 'country_code': 'ca'}",bank,New Westminster,49.200587799999994,-122.9164791,TD Canada Trust,"{'brand:wikidata': 'Q1080670', 'atm': 'yes', 'brand': 'TD Canada Trust', 'brand:wikipedia': 'en:TD Canada Trust'}",2019-02-23T06:57:21.000-08:00
"{'amenity': 'Vancity', 'road': 'Sixth Street', 'neighbourhood': 'Queens Park', 'city_district': 'Queens Park', 'city': 'New Westminster', 'county': 'Metro Vancouver Regional District', 'state': 'British Columbia', 'postcode': 'V3L 0C9', 'country': 'Canada', 'country_code': 'ca'}",bank,New Westminster,49.212190899999996,-122.91878559999999,Vancity,"{'brand:wikidata': 'Q7914085', 'official_name': 'Vancouver City Savings Credit Union', 'brand:wikipedia': 'en:Vancity', 'atm': 'yes', 'brand': 'Vancity', 'operator': 'Vancity'}",2019-07-02T01:10:30.000-07:00
"{'building': 'Sixth & Sixth', 'road': 'Sixth Avenue', 'city_district': 'Brow of the Hill', 'city': 'New Westminster', 'county': 'Metro Vancouver Regional District', 'state': 'British Columbia', 'postcode': 'V3L 3C2', 'country': 'Canada', 'country_code': 'ca'}",bank,New Westminster,49.2129622,-122.9203912,CIBC,"{'brand:wikidata': 'Q666694', 'addr:housenumber': '554', 'addr:street': 'Sixth Street', 'brand': 'CIBC', 'brand:wikipedia': 'en:Canadian Imperial Bank of Commerce'}",2019-07-02T01:10:30.000-07:00
"{'amenity': 'Community Savings Credit Union', 'road': 'Eighth Avenue', 'neighbourhood': 'Kelvin', 'city_district': 'Moody Park', 'city': 'New Westminster', 'county': 'Metro Vancouver Regional District', 'state': 'British Columbia', 'postcode': 'V3M 4K4', 'country': 'Canada', 'country_code': 'ca'}",bank,New Westminster,49.2105584,-122.9337462,Community Savings Credit Union,{'atm': 'yes'},2012-04-05T07:46:13.000-07:00
"{'amenity': 'CIBC', 'house_number': '800', 'road': 'Carnarvon Street', 'neighbourhood': 'Downtown', 'city_district': 'Downtown', 'city': 'New Westminster', 'county': 'Metro Vancouver Regional District', 'state': 'British Columbia', 'postcode': 'V3M 3N7', 'country': 'Canada', 'country_code': 'ca'}",bank,New Westminster,49.201525200000006,-122.91220729999999,CIBC,"{'addr:housenumber': '800', 'addr:street': 'Carnarvon Street', 'level': '1'}",2019-01-04T02:41:28.000-08:00
"{'amenity': 'Scotiabank', 'road': 'Begbie Street', 'neighbourhood': 'Downtown', 'city_district': 'Downtown', 'city': 'New Westminster', 'county': 'Metro Vancouver Regional District', 'state': 'British Columbia', 'postcode': 'V3M 3L9', 'country': 'Canada', 'country_code': 'ca'}",bank,New Westminster,49.20178189999999,-122.9100441,Scotiabank,"{'brand:wikidata': 'Q451476', 'brand': 'Scotiabank', 'brand:wikipedia': 'en:Scotiabank'}",2019-08-09T07:52:25.000-07:00
"{'amenity': 'RBC', 'road': 'Sixth Avenue', 'city_district': 'Brow of the Hill', 'city': 'New Westminster', 'county': 'Metro Vancouver Regional District', 'state': 'British Columbia', 'postcode': 'V3L 3C2', 'country': 'Canada', 'country_code': 'ca'}",bank,New Westminster,49.21239970000001,-122.9213919,RBC,"{'brand:wikidata': 'Q735261', 'official_name': 'Royal Bank of Canada', 'brand': 'RBC', 'brand:wikipedia': 'en:Royal Bank of Canada'}",2019-07-02T01:10:30.000-07:00
"{'house_number': '615', 'road': 'Belmont Street', 'city_district': 'Brow of the Hill', 'city': 'New Westminster', 'county': 'Metro Vancouver Regional District', 'state': 'British Columbia', 'postcode': 'V3M 3C0', 'country': 'Canada', 'country_code': 'ca'}",bicycle_parking,New Westminster,49.2118592,-122.9206625,,"{'source': 'gps/photo survey', 'operator': 'New West Cycle', 'capacity': '6'}",2010-10-23T17:09:14.000-07:00
"{'highway': '6 St (NB) at 4 Ave', 'road': 'Sixth Street', 'neighbourhood': 'Queens Park', 'city_district': 'Queens Park', 'city': 'New Westminster', 'county': 'Metro Vancouver Regional District', 'state': 'British Columbia', 'postcode': 'V3L 0C9', 'country': 'Canada', 'country_code': 'ca'}",bicycle_parking,New Westminster,49.2103295,-122.9168631,,"{'source': 'gps/photo survey', 'operator': 'New West Cycle', 'capacity': '6'}",2010-10-23T17:09:12.000-07:00
"{'highway': '6 St (NB) at 5 Ave', 'road': 'Sixth Street', 'neighbourhood': 'Queens Park', 'city_district': 'Queens Park', 'city': 'New Westminster', 'county': 'Metro Vancouver Regional District', 'state': 'British Columbia', 'postcode': 'V3L 0C9', 'country': 'Canada', 'country_code': 'ca'}",bicycle_parking,New Westminster,49.21188460000001,-122.91878059999999,,"{'source': 'gps/photo survey', 'operator': 'New West Cycle', 'capacity': '6'}",2010-10-23T17:09:13.000-07:00
"{'shop': 'Uptown Market', 'road': 'Sixth Street', 'neighbourhood': 'Queens Park', 'city_district': 'Queens Park', 'city': 'New Westminster', 'county': 'Metro Vancouver Regional District', 'state': 'British Columbia', 'postcode': 'V3L 0C9', 'country': 'Canada', 'country_code': 'ca'}",bicycle_parking,New Westminster,49.20978270000001,-122.9161445,,"{'source': 'gps/photo survey', 'operator': 'New West Cycle', 'capacity': '6'}",2010-10-23T17:09:14.000-07:00
"{'building': 'The Belmont Tower', 'house_number': '534', 'road': 'Sixth Street', 'city_district': 'Queens Park', 'city': 'New Westminster', 'county': 'Metro Vancouver Regional District', 'state': 'British Columbia', 'postcode': 'V3L 3B9', 'country': 'Canada', 'country_code': 'ca'}",bicycle_parking,New Westminster,49.21233220000001,-122.9198048,,"{'source': 'gps/photo survey', 'operator': 'New West Cycle', 'capacity': '6'}",2010-10-23T17:09:07.000-07:00
"{'building': 'Professional Building', 'house_number': '522', 'road': 'Seventh Street', 'neighbourhood': 'Brow of the Hill', 'city_district': 'Brow of the Hill', 'city': 'New Westminster', 'county': 'Metro Vancouver Regional District', 'state': 'British Columbia', 'postcode': 'V3M 5T5', 'country': 'Canada', 'country_code': 'ca'}",bicycle_parking,New Westminster,49.2116684,-122.9209682,,"{'operator': 'New West Cycle', 'capacity': '6'}",2010-10-23T17:09:15.000-07:00
"{'shop': 'Beach House Tanning & Swimwear', 'road': 'Sixth Street', 'neighbourhood': 'Glenbrook', 'city_district': 'Glenbrooke North', 'city': 'New Westminster', 'county': 'Metro Vancouver Regional District', 'state': 'British Columbia', 'postcode': 'V3L 3C5', 'country': 'Canada', 'country_code': 'ca'}",bicycle_parking,New Westminster,49.2155098,-122.92318600000002,,{'capacity': '4'},2010-10-23T17:08:42.000-07:00
"{'highway': '6 St (SB) at 5 Ave', 'road': 'Sixth Street', 'neighbourhood': 'Queens Park', 'city_district': 'Queens Park', 'city': 'New Westminster', 'county': 'Metro Vancouver Regional District', 'state': 'British Columbia', 'postcode': 'V3L 0C9', 'country': 'Canada', 'country_code': 'ca'}",bicycle_parking,New Westminster,49.211738200000006,-122.9184752,,"{'operator': 'New West Cycle', 'capacity': '6'}",2010-10-23T17:08:56.000-07:00
"{'office': 'The Co-operators', 'road': 'Sixth Street', 'neighbourhood': 'Glenbrook', 'city_district': 'Glenbrooke North', 'city': 'New Westminster', 'county': 'Metro Vancouver Regional District', 'state': 'British Columbia', 'postcode': 'V3L 3C2', 'country': 'Canada', 'country_code': 'ca'}",bicycle_parking,New Westminster,49.2133555,-122.92046450000001,,{'capacity': '3'},2010-10-23T17:08:57.000-07:00
"{'building': 'The Belmont Tower', 'house_number': '534', 'road': 'Sixth Street', 'city_district': 'Queens Park', 'city': 'New Westminster', 'county': 'Metro Vancouver Regional District', 'state': 'British Columbia', 'postcode': 'V3L 3B9', 'country': 'Canada', 'country_code': 'ca'}",bicycle_parking,New Westminster,49.2126071,-122.91958400000001,,{'capacity': '5'},2010-10-23T17:09:03.000-07:00
"{'amenity': 'Royal Canadian Legion - Branch 2 (New Westminster)', 'house_number': '631', 'road': 'Sixth Street', 'neighbourhood': 'Glenbrook', 'city_district': 'Glenbrooke North', 'city': 'New Westminster', 'county': 'Metro Vancouver Regional District', 'state': 'British Columbia', 'postcode': 'V3L 3C5', 'country': 'Canada', 'country_code': 'ca'}",bicycle_parking,New Westminster,49.2140726,-122.9213741,,"{'operator': 'New West Cycle', 'capacity': '6'}",2010-10-23T17:09:01.000-07:00
"{'amenity': '47', 'road': 'Sixth Street', 'neighbourhood': 'Queens Park', 'city_district': 'Queens Park', 'city': 'New Westminster', 'county': 'Metro Vancouver Regional District', 'state': 'British Columbia', 'postcode': 'V3L 0C9', 'country': 'Canada', 'country_code': 'ca'}",bicycle_parking,New Westminster,49.2096898,-122.9159307,,"{'ref': '47', 'operator': 'New West Cycle', 'capacity': '6'}",2010-10-23T17:09:00.000-07:00
"{'house_number': '733', 'road': 'Sixth Street', 'neighbourhood': 'Glenbrook', 'city_district': 'Glenbrooke North', 'city': 'New Westminster', 'county': 'Metro Vancouver Regional District', 'state': 'British Columbia', 'postcode': 'V3L 3C5', 'country': 'Canada', 'country_code': 'ca'}",bicycle_parking,New Westminster,49.214955700000004,-122.92250290000001,,"{'operator': 'New West Cycle', 'capacity': '4'}",2010-10-23T17:08:59.000-07:00
"{'amenity': 'Starbucks', 'house_number': '411', 'road': 'East Columbia Street', 'neighbourhood': 'Sapperton', 'city_district': 'McBride Sapperton', 'city': 'New Westminster', 'county': 'Metro Vancouver Regional District', 'state': 'British Columbia', 'postcode': 'V3L 3X6', 'country': 'Canada', 'country_code': 'ca'}",bicycle_parking,New Westminster,49.2283872,-122.8929632,,{},2018-06-17T19:52:55.000-07:00
"{'amenity': 'New Westminster Public Library', 'house_number': '716', 'road': 'Sixth Avenue', 'neighbourhood': 'Brow of the Hill', 'city_district': 'Brow of the Hill', 'city': 'New Westminster', 'county': 'Metro Vancouver Regional District', 'state': 'British Columbia', 'postcode': 'V3M 5T5', 'country': 'Canada', 'country_code': 'ca'}",bicycle_parking,New Westminster,49.211555600000004,-122.92289879999998,,{},2010-11-23T03:03:39.000-08:00
"{'shop': 'Walmart', 'house_number': '805', 'road': 'Boyd Street', 'neighbourhood': 'Queensborough', 'city_district': 'Queensborough', 'city': 'New Westminster', 'county': 'Metro Vancouver Regional District', 'state': 'British Columbia', 'postcode': 'V3M 5B0', 'country': 'Canada', 'country_code': 'ca'}",bicycle_parking,New Westminster,49.1921414,-122.9507575,,{},2017-03-19T05:57:18.000-07:00
"{'amenity': 'Douglas College New Westminster Campus', 'house_number': '700', 'road': 'Royal Avenue', 'neighbourhood': 'Downtown', 'city_district': 'Downtown', 'city': 'New Westminster', 'county': 'Metro Vancouver Regional District', 'state': 'British Columbia', 'postcode': 'V3M 5Z5', 'country': 'Canada', 'country_code': 'ca'}",bicycle_parking,New Westminster,49.202928299999996,-122.9135024,,{},2017-05-01T00:51:29.000-07:00
"{'house_number': '179', 'road': 'Foundry Row', 'neighbourhood': 'Port Royal', 'city_district': 'Queensborough', 'city': 'New Westminster', 'county': 'Metro Vancouver Regional District', 'state': 'British Columbia', 'postcode': 'V3M 0B5', 'country': 'Canada', 'country_code': 'ca'}",bicycle_parking,New Westminster,49.194907,-122.92728840000001,,{},2017-07-29T06:25:55.000-07:00
"{'road': 'Blackberry Drive', 'city_district': 'McBride Sapperton', 'city': 'New Westminster', 'county': 'Metro Vancouver Regional District', 'state': 'British Columbia', 'postcode': 'V3L 5P5', 'country': 'Canada', 'country_code': 'ca'}",bicycle_parking,New Westminster,49.2177473,-122.90228880000001,,{},2018-04-29T03:48:27.000-07:00
"{'office': 'Canadian Mental Health Association Simon Fraser Branch', 'road': 'Fourth Avenue', 'neighbourhood': 'Brow of the Hill', 'city_district': 'Queens Park', 'city': 'New Westminster', 'county': 'Metro Vancouver Regional District', 'state': 'British Columbia', 'postcode': 'V3L 3B2', 'country': 'Canada', 'country_code': 'ca'}",post_box,New Westminster,49.2103229,-122.9166118,,{'operator': 'Canada Post'},2011-01-06T05:24:12.000-08:00
"{'building': 'The Belmont Tower', 'house_number': '534', 'road': 'Sixth Street', 'city_district': 'Queens Park', 'city': 'New Westminster', 'county': 'Metro Vancouver Regional District', 'state': 'British Columbia', 'postcode': 'V3L 3B9', 'country': 'Canada', 'country_code': 'ca'}",post_box,New Westminster,49.2126411,-122.91963290000001,,{'operator': 'Canada Post'},2010-10-23T17:08:50.000-07:00
"{'highway': '6 St (SB) at Queens Ave', 'road': 'Sixth Street', 'neighbourhood': 'Downtown', 'city_district': 'Downtown', 'city': 'New Westminster', 'county': 'Metro Vancouver Regional District', 'state': 'British Columbia', 'postcode': 'V3L 5B3', 'country': 'Canada', 'country_code': 'ca'}",post_box,New Westminster,49.2070831,-122.91256010000001,,{'operator': 'Canada Post'},2012-04-05T08:11:03.000-07:00
"{'amenity': 'Canada Post', 'road': 'Agnes Street', 'neighbourhood': 'Downtown', 'city_district': 'Downtown', 'city': 'New Westminster', 'county': 'Metro Vancouver Regional District', 'state': 'British Columbia', 'postcode': 'V3L 1G2', 'country': 'Canada', 'country_code': 'ca'}",post_box,New Westminster,49.204840600000004,-122.9100753,Canada Post,{'operator': 'Canada Post'},2020-05-01T02:18:50.000-07:00
"{'amenity': 'Chevron', 'road': 'Sixth Street', 'neighbourhood': 'Queens Park', 'city_district': 'Queens Park', 'city': 'New Westminster', 'county': 'Metro Vancouver Regional District', 'state': 'British Columbia', 'postcode': 'V3L 0C9', 'country': 'Canada', 'country_code': 'ca'}",post_box,New Westminster,49.210927399999996,-122.9177222,,"{'operator': 'Canada Post', 'source': 'gps/photo survey'}",2010-10-22T23:18:18.000-07:00
"{'house_number': '615', 'road': 'Belmont Street', 'city_district': 'Brow of the Hill', 'city': 'New Westminster', 'county': 'Metro Vancouver Regional District', 'state': 'British Columbia', 'postcode': 'V3M 3C0', 'country': 'Canada', 'country_code': 'ca'}",post_box,New Westminster,49.2119556,-122.92047190000001,,"{'operator': 'Canada Post', 'source': 'gps/photo survey'}",2010-10-22T23:18:17.000-07:00
"{'house_number': '321', 'road': 'Sixth Street', 'neighbourhood': 'Queens Park', 'city_district': 'Queens Park', 'city': 'New Westminster', 'county': 'Metro Vancouver Regional District', 'state': 'British Columbia', 'postcode': 'V3L 0C9', 'country': 'Canada', 'country_code': 'ca'}",post_box,New Westminster,49.20934620000001,-122.9156871,,"{'operator': 'Canada Post', 'source': 'gps/photo survey'}",2010-10-22T23:18:18.000-07:00
"{'amenity': '3732225', 'road': 'East Columbia Street', 'neighbourhood': 'Sapperton', 'city_district': 'McBride Sapperton', 'city': 'New Westminster', 'county': 'Metro Vancouver Regional District', 'state': 'British Columbia', 'postcode': 'V3L 3X6', 'country': 'Canada', 'country_code': 'ca'}",post_box,New Westminster,49.2292284,-122.89286709999999,,{'ref': '3732225'},2018-06-17T19:52:52.000-07:00
"{'amenity': '3732292', 'road': 'Keary Street', 'neighbourhood': 'Sapperton', 'city_district': 'McBride Sapperton', 'city': 'New Westminster', 'county': 'Metro Vancouver Regional District', 'state': 'British Columbia', 'postcode': 'V3L 0E7', 'country': 'Canada', 'country_code': 'ca'}",post_box,New Westminster,49.225462,-122.8927098,,{'ref': '3732292'},2018-06-17T19:52:53.000-07:00
"{'highway': 'East Columbia St (SB) at Braid St', 'road': 'East Columbia Street', 'neighbourhood': 'Sapperton', 'city_district': 'McBride Sapperton', 'city': 'New Westminster', 'county': 'Metro Vancouver Regional District', 'state': 'British Columbia', 'postcode': 'V3L 3X6', 'country': 'Canada', 'country_code': 'ca'}",post_box,New Westminster,49.2312023,-122.8928506,,{},2019-01-13T19:47:47.000-08:00
"{'building': 'Sherbrooke Center', 'road': 'Sherbrooke Street', 'neighbourhood': 'Sapperton', 'city_district': 'McBride Sapperton', 'city': 'New Westminster', 'county': 'Metro Vancouver Regional District', 'state': 'British Columbia', 'postcode': 'V3L 3X1', 'country': 'Canada', 'country_code': 'ca'}",post_box,New Westminster,49.2279493,-122.8927078,,{'collection_times': 'Mo-Fr 16:00'},2019-10-30T21:03:15.000-07:00
"{'house_number': '715', 'road': 'Royal Avenue', 'neighbourhood': 'Downtown', 'city_district': 'Downtown', 'city': 'New Westminster', 'county': 'Metro Vancouver Regional District', 'state': 'British Columbia', 'postcode': 'V3L 5B3', 'country': 'Canada', 'country_code': 'ca'}",post_box,New Westminster,49.2048893,-122.91277190000001,,{'operator': 'Canada Post'},2018-08-26T07:00:11.000-07:00
"{'house_number': '737', 'road': 'Ewen Avenue', 'neighbourhood': 'Queensborough', 'city_district': 'Queensborough', 'city': 'New Westminster', 'county': 'Metro Vancouver Regional District', 'state': 'British Columbia', 'postcode': 'V3M 5B8', 'country': 'Canada', 'country_code': 'ca'}",post_box,New Westminster,49.188422100000004,-122.9411585,,"{'post_box:type': 'cmb', 'operator': 'Canada Post'}",2017-01-12T04:57:05.000-08:00
"{'road': 'Gifford Street', 'neighbourhood': 'Queensborough', 'city_district': 'Queensborough', 'city': 'New Westminster', 'county': 'Metro Vancouver Regional District', 'state': 'British Columbia', 'postcode': 'V3M 0G2', 'country': 'Canada', 'country_code': 'ca'}",post_box,New Westminster,49.1839061,-122.95147709999999,,"{'post_box:type': 'cmb', 'operator': 'Canada Post'}",2017-01-12T04:57:05.000-08:00
"{'house_number': '226', 'road': 'Brookes Street', 'neighbourhood': 'Port Royal', 'city_district': 'Queensborough', 'city': 'New Westminster', 'county': 'Metro Vancouver Regional District', 'state': 'British Columbia', 'postcode': 'V3M 0B5', 'country': 'Canada', 'country_code': 'ca'}",post_box,New Westminster,49.194439100000004,-122.9241653,,{'operator': 'Canada Post'},2017-07-22T20:23:48.000-07:00
"{'road': 'Furness Street', 'neighbourhood': 'Port Royal', 'city_district': 'Queensborough', 'city': 'New Westminster', 'county': 'Metro Vancouver Regional District', 'state': 'British Columbia', 'postcode': 'V3M 5B4', 'country': 'Canada', 'country_code': 'ca'}",post_box,New Westminster,49.19546500000001,-122.9274232,,{'operator': 'Canada Post'},2017-07-29T06:25:56.000-07:00
"{'house_number': '785', 'road': 'South Dyke Road', 'neighbourhood': 'Queensborough', 'city_district': 'Queensborough', 'city': 'New Westminster', 'county': 'Metro Vancouver Regional District', 'state': 'British Columbia', 'postcode': 'V3M 6S9', 'country': 'Canada', 'country_code': 'ca'}",post_box,New Westminster,49.1845716,-122.93737379999999,,"{'post_box:type': 'cmb', 'operator': 'Canada Post'}",2017-09-07T05:25:25.000-07:00
"{'amenity': 'Canada Post', 'road': 'Carnarvon Street', 'neighbourhood': 'Downtown', 'city_district': 'Downtown', 'city': 'New Westminster', 'county': 'Metro Vancouver Regional District', 'state': 'British Columbia', 'postcode': 'V3M 3N7', 'country': 'Canada', 'country_code': 'ca'}",post_box,New Westminster,49.203035899999996,-122.91069920000001,Canada Post,{'operator': 'Canada Post'},2020-05-01T02:18:50.000-07:00
"{'amenity': 'Canada Post', 'road': 'Columbia Street', 'neighbourhood': 'Downtown', 'city_district': 'Downtown', 'city': 'New Westminster', 'county': 'Metro Vancouver Regional District', 'state': 'British Columbia', 'postcode': 'V3L 1A7', 'country': 'Canada', 'country_code': 'ca'}",post_box,New Westminster,49.205143299999996,-122.90403400000001,Canada Post,{'operator': 'Canada Post'},2020-05-01T02:24:40.000-07:00
"{'amenity': 'Canada Post', 'road': 'Columbia Street', 'neighbourhood': 'Downtown', 'city_district': 'Downtown', 'city': 'New Westminster', 'county': 'Metro Vancouver Regional District', 'state': 'British Columbia', 'postcode': 'V3M 1A5', 'country': 'Canada', 'country_code': 'ca'}",post_box,New Westminster,49.2028581,-122.90873049999999,Canada Post,{'operator': 'Canada Post'},2020-05-01T02:24:40.000-07:00
"{'amenity': 'Canada Post', 'road': 'Columbia Street', 'neighbourhood': 'Downtown', 'city_district': 'Downtown', 'city': 'New Westminster', 'county': 'Metro Vancouver Regional District', 'state': 'British Columbia', 'postcode': 'V3M 1B0', 'country': 'Canada', 'country_code': 'ca'}",post_box,New Westminster,49.200911,-122.91238770000001,Canada Post,{'operator': 'Canada Post'},2020-05-01T02:24:40.000-07:00
"{'amenity': 'Canada Post', 'road': 'Columbia Street', 'neighbourhood': 'Downtown', 'city_district': 'Downtown', 'city': 'New Westminster', 'county': 'Metro Vancouver Regional District', 'state': 'British Columbia', 'postcode': 'V3M 3L9', 'country': 'Canada', 'country_code': 'ca'}",post_box,New Westminster,49.201952899999995,-122.90988119999999,Canada Post,{'operator': 'Canada Post'},2020-05-01T02:24:40.000-07:00
"{'building': 'Kings Gate House', 'road': 'Twelfth Street', 'neighbourhood': 'Brow of the Hill', 'city_district': 'Brow of the Hill', 'city': 'New Westminster', 'county': 'Metro Vancouver Regional District', 'state': 'British Columbia', 'postcode': 'V3M 2A5', 'country': 'Canada', 'country_code': 'ca'}",post_box,New Westminster,49.2075023,-122.9301467,,{},2012-03-20T05:26:54.000-07:00
"{'house_number': '236', 'road': 'Jensen Street', 'neighbourhood': 'Port Royal', 'city_district': 'Queensborough', 'city': 'New Westminster', 'county': 'Metro Vancouver Regional District', 'state': 'British Columbia', 'postcode': 'V3M 0B5', 'country': 'Canada', 'country_code': 'ca'}",post_box,New Westminster,49.19395520000001,-122.9252632,,{'operator': 'Canada Post'},2016-02-25T07:50:52.000-08:00
"{'house_number': '998', 'road': 'Fifth Avenue', 'neighbourhood': 'Brow of the Hill', 'city_district': 'Brow of the Hill', 'city': 'New Westminster', 'county': 'Metro Vancouver Regional District', 'state': 'British Columbia', 'postcode': 'V3M 0G8', 'country': 'Canada', 'country_code': 'ca'}",post_box,New Westminster,49.2194487,-122.9262828,,{'operator': 'Canada Post'},2012-03-22T05:08:14.000-07:00
"{'amenity': 'Justice Institute of British Columbia', 'house_number': '715', 'road': 'McBride Boulevard', 'neighbourhood': 'Glenbrook', 'city_district': 'Glenbrooke North', 'city': 'New Westminster', 'county': 'Metro Vancouver Regional District', 'state': 'British Columbia', 'postcode': 'V3L 4G6', 'country': 'Canada', 'country_code': 'ca'}",post_box,New Westminster,49.22264929999999,-122.91007250000001,,{'operator': 'Canada Post'},2019-06-06T18:58:50.000-07:00
"{'house_number': '1005', 'road': 'Columbia Street', 'neighbourhood': 'Downtown', 'city_district': 'Downtown', 'city': 'New Westminster', 'county': 'Metro Vancouver Regional District', 'state': 'British Columbia', 'postcode': 'V3M 1C4', 'country': 'Canada', 'country_code': 'ca'}",post_box,New Westminster,49.2007894,-122.9169534,,{},2014-04-23T18:59:28.000-07:00
"{'highway': 'New Westminster Station Bay 9', 'road': 'Eighth Street', 'neighbourhood': 'Downtown', 'city_district': 'Downtown', 'city': 'New Westminster', 'county': 'Metro Vancouver Regional District', 'state': 'British Columbia', 'postcode': 'V3M 3N7', 'country': 'Canada', 'country_code': 'ca'}",post_box,New Westminster,49.2015742,-122.9120216,,{'operator': 'Canada Post'},2016-10-12T21:37:46.000-07:00
"{'road': 'Canfor Avenue', 'neighbourhood': 'Brunette Creek', 'city': 'New Westminster', 'county': 'Metro Vancouver Regional District', 'state': 'British Columbia', 'postcode': 'V3L 3P2', 'country': 'Canada', 'country_code': 'ca'}",post_box,New Westminster,49.2290666,-122.87934779999999,,{},2019-07-22T02:31:28.000-07:00
"{'amenity': 'F.W. Howay Elementary', 'road': 'Courtney Crescent', 'neighbourhood': 'Glenbrook', 'city': 'New Westminster', 'county': 'Metro Vancouver Regional District', 'state': 'British Columbia', 'postcode': 'V3N 2G5', 'country': 'Canada', 'country_code': 'ca'}",post_box,New Westminster,49.2265526,-122.91138229999999,,{'operator': 'Canada Post'},2012-04-07T00:46:19.000-07:00
"{'house_number': '330', 'road': 'East Columbia Street', 'neighbourhood': 'Sapperton', 'city_district': 'McBride Sapperton', 'city': 'New Westminster', 'county': 'Metro Vancouver Regional District', 'state': 'British Columbia', 'postcode': 'V3L 1C0', 'country': 'Canada', 'country_code': 'ca'}",post_box,New Westminster,49.22589620000001,-122.8920039,,{},2018-09-24T16:48:10.000-07:00
"{'house_number': '256', 'road': 'Furness Street', 'neighbourhood': 'Port Royal', 'city_district': 'Queensborough', 'city': 'New Westminster', 'county': 'Metro Vancouver Regional District', 'state': 'British Columbia', 'postcode': 'V3M 0B5', 'country': 'Canada', 'country_code': 'ca'}",post_box,New Westminster,49.193584,-122.9262769,,"{'post_box:type': 'community', 'operator': 'Canada Post'}",2016-10-19T03:36:14.000-07:00
"{'house_number': '201', 'road': 'Furness Street', 'neighbourhood': 'Port Royal', 'city_district': 'Queensborough', 'city': 'New Westminster', 'county': 'Metro Vancouver Regional District', 'state': 'British Columbia', 'postcode': 'V3M 0B5', 'country': 'Canada', 'country_code': 'ca'}",post_box,New Westminster,49.192854,-122.92530719999999,,"{'post_box:type': 'community', 'operator': 'Canada Post'}",2016-10-19T03:36:14.000-07:00
"{'house_number': '2008', 'road': '8th Avenue', 'neighbourhood': 'Connaught Heights', 'city_district': 'Connaught Heights', 'city': 'New Westminster', 'county': 'Metro Vancouver Regional District', 'state': 'British Columbia', 'postcode': 'V3M 4W6', 'country': 'Canada', 'country_code': 'ca'}",post_box,New Westminster,49.202521600000004,-122.94875379999999,,{'operator': 'Canada Post'},2013-05-09T14:46:03.000-07:00
"{'road': 'Seventh Avenue', 'neighbourhood': 'Uptown', 'city_district': 'Moody Park', 'city': 'New Westminster', 'county': 'Metro Vancouver Regional District', 'state': 'British Columbia', 'postcode': 'V3L 3C5', 'country': 'Canada', 'country_code': 'ca'}",post_box,New Westminster,49.2126939,-122.9255922,,{'operator': 'Canada Post'},2016-03-07T08:49:48.000-08:00
"{'road': 'East Eighth Avenue', 'neighbourhood': 'Victory Heights', 'city': 'New Westminster', 'county': 'Metro Vancouver Regional District', 'state': 'British Columbia', 'postcode': 'V3L 4M8', 'country': 'Canada', 'country_code': 'ca'}",post_box,New Westminster,49.226487899999995,-122.9044869,,{'operator': 'Canada Post'},2012-04-01T04:14:07.000-07:00
"{'house_number': '1801', 'road': '8th Avenue', 'neighbourhood': 'Connaught Heights', 'city_district': 'Connaught Heights', 'city': 'New Westminster', 'county': 'Metro Vancouver Regional District', 'state': 'British Columbia', 'postcode': 'V3M 4W6', 'country': 'Canada', 'country_code': 'ca'}",post_box,New Westminster,49.20504260000001,-122.9441253,,{'operator': 'Canada Post'},2012-04-05T04:11:08.000-07:00
"{'amenity': '6 St (SB) at 7 Ave', 'road': 'Sixth Street', 'neighbourhood': 'Glenbrook', 'city_district': 'Glenbrooke North', 'city': 'New Westminster', 'county': 'Metro Vancouver Regional District', 'state': 'British Columbia', 'postcode': 'V3L 3C5', 'country': 'Canada', 'country_code': 'ca'}",post_box,New Westminster,49.21420420000001,-122.9218202,,{'operator': 'Canada Post'},2012-04-05T07:52:39.000-07:00
"{'amenity': 'Esso', 'house_number': '780', 'road': '6th Street', 'city_district': 'Glenbrooke North', 'city': 'New Westminster', 'county': 'Metro Vancouver Regional District', 'state': 'British Columbia', 'postcode': 'V3N 3N4', 'country': 'Canada', 'country_code': 'ca'}",post_box,New Westminster,49.2156122,-122.92360430000001,,{'operator': 'Canada Post'},2012-04-05T07:52:40.000-07:00
"{'house_number': '1798', 'road': '10th Avenue', 'neighbourhood': 'Connaught Heights', 'city_district': 'West End', 'city': 'New Westminster', 'county': 'Metro Vancouver Regional District', 'state': 'British Columbia', 'postcode': 'V3M 4X1', 'country': 'Canada', 'country_code': 'ca'}",post_box,New Westminster,49.208102600000004,-122.94756100000001,,{'operator': 'Canada Post'},2012-03-22T05:08:14.000-07:00
"{'house_number': '1400', 'road': 'Edinburgh Street', 'neighbourhood': 'West End', 'city_district': 'West End', 'city': 'New Westminster', 'county': 'Metro Vancouver Regional District', 'state': 'British Columbia', 'postcode': 'V3M 4K4', 'country': 'Canada', 'country_code': 'ca'}",post_box,New Westminster,49.20951820000001,-122.93817549999999,,{},2012-05-16T23:56:26.000-07:00
"{'house_number': '260', 'road': 'Holly Avenue', 'neighbourhood': 'Port Royal', 'city_district': 'Queensborough', 'city': 'New Westminster', 'county': 'Metro Vancouver Regional District', 'state': 'British Columbia', 'postcode': 'V3M 0B5', 'country': 'Canada', 'country_code': 'ca'}",post_box,New Westminster,49.1932072,-122.9273134,,"{'post_box:type': 'community', 'operator': 'Canada Post'}",2017-07-05T05:55:30.000-07:00
"{'house_number': '843', 'road': 'Ewen Avenue', 'neighbourhood': 'Queensborough', 'city_district': 'Queensborough', 'city': 'New Westminster', 'county': 'Metro Vancouver Regional District', 'state': 'British Columbia', 'postcode': 'V3M 5B8', 'country': 'Canada', 'country_code': 'ca'}",post_box,New Westminster,49.187490600000004,-122.94434890000001,,"{'post_box:type': 'cmb', 'operator': 'Canada Post'}",2017-07-05T06:08:01.000-07:00
"{'amenity': 'Henry Ng Denturist', 'road': 'Sixth Street', 'neighbourhood': 'Queens Park', 'city_district': 'Queens Park', 'city': 'New Westminster', 'county': 'Metro Vancouver Regional District', 'state': 'British Columbia', 'postcode': 'V3L 0C9', 'country': 'Canada', 'country_code': 'ca'}",dentist,New Westminster,49.2114562,-122.91838870000001,Henry Ng Denturist,"{'phone': '+1-604-522-1848', 'source': 'gps/photo survey'}",2018-10-26T20:29:56.000-07:00
"{'amenity': 'Jeff Malcolm Denturist', 'house_number': '611', 'road': 'Fifth Avenue', 'neighbourhood': 'Brow of the Hill', 'city_district': 'Brow of the Hill', 'city': 'New Westminster', 'county': 'Metro Vancouver Regional District', 'state': 'British Columbia', 'postcode': 'V3M 0G8', 'country': 'Canada', 'country_code': 'ca'}",dentist,New Westminster,49.211625,-122.9190048,Jeff Malcolm Denturist,"{'addr:housenumber': '611', 'addr:street': '5th Avenue', 'source': 'gps/photo survey'}",2010-10-22T23:18:19.000-07:00
"{'amenity': 'Dr. Jill Turney', 'road': 'Fourth Avenue', 'neighbourhood': 'Brow of the Hill', 'city_district': 'Queens Park', 'city': 'New Westminster', 'county': 'Metro Vancouver Regional District', 'state': 'British Columbia', 'postcode': 'V3L 3B2', 'country': 'Canada', 'country_code': 'ca'}",dentist,New Westminster,49.2104112,-122.9166169,Dr. Jill Turney,{'phone': '+1-604-524-8838'},2018-10-26T20:29:58.000-07:00
"{'amenity': 'Artis', 'road': 'Sixth Street', 'neighbourhood': 'Queens Park', 'city_district': 'Queens Park', 'city': 'New Westminster', 'county': 'Metro Vancouver Regional District', 'state': 'British Columbia', 'postcode': 'V3L 0C9', 'country': 'Canada', 'country_code': 'ca'}",dentist,New Westminster,49.2123726,-122.9191212,Artis,"{'phone': '+1-604-524-0800', 'healthcare': 'dentist'}",2019-07-02T01:10:30.000-07:00
"{'amenity': 'Dr. D. Lovely & Associates', 'house_number': '609', 'road': '6th Street', 'city_district': 'Glenbrooke North', 'city': 'New Westminster', 'county': 'Metro Vancouver Regional District', 'state': 'British Columbia', 'postcode': 'V3N 3N4', 'country': 'Canada', 'country_code': 'ca'}",dentist,New Westminster,49.2135508,-122.92055520000001,Dr. D. Lovely & Associates,"{'addr:housenumber': '609', 'addr:street': '6th Street'}",2010-10-23T17:08:52.000-07:00
"{'amenity': 'New Smile Dental Group', 'house_number': '1020', 'road': 'Ewen Avenue', 'neighbourhood': 'Queensborough', 'city_district': 'Queensborough', 'city': 'New Westminster', 'county': 'Metro Vancouver Regional District', 'state': 'British Columbia', 'postcode': 'V3M 0G2', 'country': 'Canada', 'country_code': 'ca'}",dentist,New Westminster,49.1854679,-122.9479878,New Smile Dental Group,"{'addr:housenumber': '1020', 'addr:street': 'Ewen Avenue', 'phone': '+1-778-397-2552'}",2018-02-10T15:24:53.000-08:00
"{'amenity': 'Queensborough', 'house_number': '805', 'road': 'Boyd Street', 'neighbourhood': 'Queensborough', 'city_district': 'Queensborough', 'city': 'New Westminster', 'county': 'Metro Vancouver Regional District', 'state': 'British Columbia', 'postcode': 'V3M 5B0', 'country': 'Canada', 'country_code': 'ca'}",dentist,New Westminster,49.191173299999996,-122.9472097,Queensborough,{'name:en': 'Queensborough'},2017-07-10T05:51:49.000-07:00
"{'house_number': '921', 'road': 'Twelfth Street', 'neighbourhood': 'Kelvin', 'city_district': 'Moody Park', 'city': 'New Westminster', 'county': 'Metro Vancouver Regional District', 'state': 'British Columbia', 'postcode': 'V3M 4K4', 'country': 'Canada', 'country_code': 'ca'}",post_office,New Westminster,49.2130654,-122.9370178,London Place,"{'brand:wikidata': 'Q1032001', 'addr:postcode': 'V3M 1K0', 'brand': 'Canada Post', 'brand:wikipedia': 'en:Canada Post', 'operator': 'Canada Post'}",2020-02-21T02:01:51.000-08:00
"{'house_number': '811', 'road': 'Columbia Street', 'neighbourhood': 'Downtown', 'city_district': 'Downtown', 'city': 'New Westminster', 'county': 'Metro Vancouver Regional District', 'state': 'British Columbia', 'postcode': 'V3M 1C4', 'country': 'Canada', 'country_code': 'ca'}",post_office,New Westminster,49.2008484,-122.9126021,New Westminster Station,"{'brand:wikidata': 'Q1032001', 'addr:postcode': 'V3M 1B0', 'brand': 'Canada Post', 'brand:wikipedia': 'en:Canada Post', 'operator': 'Canada Post'}",2020-02-21T02:01:52.000-08:00
"{'house_number': '287', 'road': ""Nelson's Court"", 'neighbourhood': 'Sapperton', 'city_district': 'McBride Sapperton', 'city': 'New Westminster', 'county': 'Metro Vancouver Regional District', 'state': 'British Columbia', 'postcode': 'V3L 0E3', 'country': 'Canada', 'country_code': 'ca'}",post_office,New Westminster,49.224782299999994,-122.8926044,Royal City,"{'brand:wikidata': 'Q1032001', 'addr:postcode': 'V3L 1C0', 'brand': 'Canada Post', 'brand:wikipedia': 'en:Canada Post', 'operator': 'Canada Post'}",2020-02-21T02:01:51.000-08:00
"{'building': 'Westminster Mall', 'road': 'Belmont Street', 'city_district': 'Queens Park', 'city': 'New Westminster', 'county': 'Metro Vancouver Regional District', 'state': 'British Columbia', 'postcode': 'V3M 3C0', 'country': 'Canada', 'country_code': 'ca'}",post_office,New Westminster,49.212982200000006,-122.91905700000001,Queens Park,"{'brand:wikidata': 'Q1032001', 'addr:postcode': 'V3L 5H0', 'brand': 'Canada Post', 'brand:wikipedia': 'en:Canada Post', 'operator': 'Canada Post'}",2020-06-18T07:38:57.000-07:00
"{'house_number': '615', 'road': 'Belmont Street', 'city_district': 'Brow of the Hill', 'city': 'New Westminster', 'county': 'Metro Vancouver Regional District', 'state': 'British Columbia', 'postcode': 'V3M 3C0', 'country': 'Canada', 'country_code': 'ca'}",post_office,New Westminster,49.2120398,-122.9204007,Sixth Street,"{'brand:wikidata': 'Q1032001', 'addr:housenumber': '617', 'brand:wikipedia': 'en:Canada Post', 'addr:street': 'Belmont Street', 'addr:postcode': 'V3M 3C0', 'brand': 'Canada Post', 'operator': 'Canada Post'}",2020-04-08T01:05:46.000-07:00
"{'amenity': 'Crest Centre', 'road': 'Langley Street', 'neighbourhood': 'Victory Heights', 'city': 'New Westminster', 'county': 'Metro Vancouver Regional District', 'state': 'British Columbia', 'postcode': 'V3N 2S0', 'country': 'Canada', 'country_code': 'ca'}",post_office,New Westminster,49.2315103,-122.90613540000001,Crest Centre,"{'brand:wikidata': 'Q1032001', 'addr:postcode': 'V3N 2S0', 'brand': 'Canada Post', 'brand:wikipedia': 'en:Canada Post', 'operator': 'Canada Post'}",2020-02-19T20:48:12.000-08:00
"{'house_number': '1005', 'road': 'Columbia Street', 'neighbourhood': 'Downtown', 'city_district': 'Downtown', 'city': 'New Westminster', 'county': 'Metro Vancouver Regional District', 'state': 'British Columbia', 'postcode': 'V3M 1C4', 'country': 'Canada', 'country_code': 'ca'}",post_office,New Westminster,49.2007929,-122.9170926,Columbia Square,"{'brand:wikidata': 'Q1032001', 'addr:housenumber': '1005', 'brand:wikipedia': 'en:Canada Post', 'addr:street': 'Columbia Street', 'addr:postcode': 'V3M 6H0', 'brand': 'Canada Post', 'addr:unit': '130', 'operator': 'Canada Post'}",2020-03-29T23:51:13.000-07:00
"{'amenity': 'Queensborough', 'road': 'Howes Street', 'retail': 'Queensborough Landing', 'city_district': 'Queensborough', 'city': 'New Westminster', 'county': 'Metro Vancouver Regional District', 'state': 'British Columbia', 'postcode': 'V3M 5B0', 'country': 'Canada', 'country_code': 'ca'}",post_office,New Westminster,49.1908795,-122.94972720000001,Queensborough,"{'brand:wikidata': 'Q1032001', 'addr:postcode': 'V3M 5B0', 'brand': 'Canada Post', 'brand:wikipedia': 'en:Canada Post', 'operator': 'Canada Post'}",2020-02-19T20:48:13.000-08:00
"{'building': 'Arena', 'road': 'Millennium Trail', 'neighbourhood': 'Queens Park', 'city_district': 'Queens Park', 'city': 'New Westminster', 'county': 'Metro Vancouver Regional District', 'state': 'British Columbia', 'postcode': 'V3L 2G1', 'country': 'Canada', 'country_code': 'ca'}",toilets,New Westminster,49.214583399999995,-122.90579579999999,,{},2018-10-12T21:30:27.000-07:00
"{'building': 'Arena', 'road': 'Millennium Trail', 'neighbourhood': 'Queens Park', 'city_district': 'Queens Park', 'city': 'New Westminster', 'county': 'Metro Vancouver Regional District', 'state': 'British Columbia', 'postcode': 'V3L 2G1', 'country': 'Canada', 'country_code': 'ca'}",toilets,New Westminster,49.2147769,-122.9053958,,{},2018-10-12T21:30:27.000-07:00
"{'leisure': 'Mercer Stadium', 'road': 'Tenth Avenue', 'neighbourhood': 'Uptown', 'city_district': 'Moody Park', 'city': 'New Westminster', 'county': 'Metro Vancouver Regional District', 'state': 'British Columbia', 'postcode': 'V3N 3N4', 'country': 'Canada', 'country_code': 'ca'}",toilets,New Westminster,49.218105200000004,-122.9269381,,{},2015-07-04T09:03:27.000-07:00
"{'building': 'Bandshell', 'road': 'Millennium Trail', 'neighbourhood': 'Queens Park', 'city_district': 'Queens Park', 'city': 'New Westminster', 'county': 'Metro Vancouver Regional District', 'state': 'British Columbia', 'postcode': 'V3L 2G1', 'country': 'Canada', 'country_code': 'ca'}",toilets,New Westminster,49.2160537,-122.90795700000001,,{},2010-12-02T09:11:36.000-08:00
"{'house_number': '810', 'road': 'Quayside Drive', 'neighbourhood': 'Quayside', 'city_district': 'Quayside', 'city': 'New Westminster', 'county': 'Metro Vancouver Regional District', 'state': 'British Columbia', 'postcode': 'V3M 6B9', 'country': 'Canada', 'country_code': 'ca'}",toilets,New Westminster,49.2002917,-122.91132009999998,,"{'wheelchair': 'yes', 'level': '1'}",2014-07-05T05:11:25.000-07:00
"{'amenity': 'Starlight Casino', 'house_number': '350', 'road': 'Gifford Street', 'city_district': 'Queensborough', 'city': 'New Westminster', 'county': 'Metro Vancouver Regional District', 'state': 'British Columbia', 'postcode': 'V3M 0G2', 'country': 'Canada', 'country_code': 'ca'}",toilets,New Westminster,49.1857773,-122.955979,,{},2017-03-19T05:56:04.000-07:00
"{'amenity': 'Starlight Casino', 'house_number': '350', 'road': 'Gifford Street', 'city_district': 'Queensborough', 'city': 'New Westminster', 'county': 'Metro Vancouver Regional District', 'state': 'British Columbia', 'postcode': 'V3M 0G2', 'country': 'Canada', 'country_code': 'ca'}",toilets,New Westminster,49.1860702,-122.95636850000001,,{},2017-03-19T05:56:08.000-07:00
"{'house_number': '350', 'road': 'Gifford Street', 'city_district': 'Queensborough', 'city': 'New Westminster', 'county': 'Metro Vancouver Regional District', 'state': 'British Columbia', 'postcode': 'V3M 0G2', 'country': 'Canada', 'country_code': 'ca'}",toilets,New Westminster,49.186631,-122.95655179999999,,{},2017-03-19T05:56:14.000-07:00
"{'amenity': 'Eats at the Pier', 'road': 'Front Street', 'neighbourhood': 'Downtown', 'city_district': 'Downtown', 'city': 'New Westminster', 'county': 'Metro Vancouver Regional District', 'state': 'British Columbia', 'postcode': 'V3M 1A5', 'country': 'Canada', 'country_code': 'ca'}",toilets,New Westminster,49.2038545,-122.90451329999999,,{},2019-05-11T06:07:56.000-07:00
"{'road': 'Cariboo Road', 'neighbourhood': 'Sapperton', 'city': 'New Westminster', 'county': 'Metro Vancouver Regional District', 'state': 'British Columbia', 'postcode': 'V3N 4C3', 'country': 'Canada', 'country_code': 'ca'}",toilets,New Westminster,49.2339493,-122.9031713,,{},2018-05-21T20:29:52.000-07:00
"{'house_number': '8', 'road': 'Laguna Court', 'neighbourhood': 'Quayside', 'city_district': 'Quayside', 'city': 'New Westminster', 'county': 'Metro Vancouver Regional District', 'state': 'British Columbia', 'postcode': 'V3M 4G9', 'country': 'Canada', 'country_code': 'ca'}",toilets,New Westminster,49.198800399999996,-122.92211329999999,,{},2017-05-01T04:25:27.000-07:00
"{'amenity': 'River Market', 'house_number': '810', 'road': 'Quayside Drive', 'neighbourhood': 'Quayside', 'city_district': 'Quayside', 'city': 'New Westminster', 'county': 'Metro Vancouver Regional District', 'state': 'British Columbia', 'postcode': 'V3M 6B9', 'country': 'Canada', 'country_code': 'ca'}",toilets,New Westminster,49.2003639,-122.9110615,,{'wheelchair': 'yes'},2014-07-05T05:11:04.000-07:00
"{'house_number': '120', 'road': 'Carter Street', 'neighbourhood': 'Queensborough', 'city_district': 'Queensborough', 'city': 'New Westminster', 'county': 'Metro Vancouver Regional District', 'state': 'British Columbia', 'postcode': 'V3M 5B8', 'country': 'Canada', 'country_code': 'ca'}",toilets,New Westminster,49.184219299999995,-122.94123020000002,,{'toilets:disposal': 'chemical'},2017-07-05T06:18:43.000-07:00
"{'amenity': '6 St (NB) at 8 Ave', 'road': 'Sixth Street', 'neighbourhood': 'Glenbrook', 'city_district': 'Glenbrooke North', 'city': 'New Westminster', 'county': 'Metro Vancouver Regional District', 'state': 'British Columbia', 'postcode': 'V3L 3C5', 'country': 'Canada', 'country_code': 'ca'}",waste_basket,New Westminster,49.21632320000001,-122.92419640000001,6 St (NB) at 8 Ave,"{'bus': 'yes', 'ref': '52244', 'shelter': 'no', 'bench': 'no', 'bin': 'no', 'public_transport': 'platform', 'highway': 'bus_stop', 'operator': 'Coast Mountain Bus Company', 'network': 'Translink'}",2020-03-13T05:23:59.000-07:00
"{'shop': 'Westminster Toyota', 'house_number': '1050', 'road': 'Boyd Street', 'neighbourhood': 'Queensborough', 'city_district': 'Queensborough', 'city': 'New Westminster', 'county': 'Metro Vancouver Regional District', 'state': 'British Columbia', 'postcode': 'V3M 5B0', 'country': 'Canada', 'country_code': 'ca'}",waste_basket,New Westminster,49.188399,-122.94925520000001,,{},2012-04-14T04:39:24.000-07:00
"{'building': 'Sixth & Sixth', 'road': 'Sixth Avenue', 'city_district': 'Brow of the Hill', 'city': 'New Westminster', 'county': 'Metro Vancouver Regional District', 'state': 'British Columbia', 'postcode': 'V3L 3C2', 'country': 'Canada', 'country_code': 'ca'}",waste_basket,New Westminster,49.2128055,-122.9200412,,{},2012-04-11T05:48:44.000-07:00
"{'highway': '8 Ave (WB) at 8 St', 'road': 'Eighth Avenue', 'neighbourhood': 'Uptown', 'city_district': 'Moody Park', 'city': 'New Westminster', 'county': 'Metro Vancouver Regional District', 'state': 'British Columbia', 'postcode': 'V3M 2M9', 'country': 'Canada', 'country_code': 'ca'}",waste_basket,New Westminster,49.2138343,-122.92809609999999,8 Ave (WB) at 8 St,"{'bus': 'yes', 'ref': '52304', 'shelter': 'no', 'bench': 'yes', 'public_transport': 'platform', 'highway': 'bus_stop', 'operator': 'Coast Mountain Bus Company', 'network': 'Translink'}",2020-03-13T04:55:07.000-07:00
"{'amenity': 'HSBC', 'house_number': '504', 'road': '6th Street', 'city_district': 'Glenbrooke North', 'city': 'New Westminster', 'county': 'Metro Vancouver Regional District', 'state': 'British Columbia', 'postcode': 'V3N 3N4', 'country': 'Canada', 'country_code': 'ca'}",waste_basket,New Westminster,49.2118318,-122.91885719999999,,{},2012-04-05T07:58:56.000-07:00
"{'amenity': 'Esso', 'house_number': '780', 'road': '6th Street', 'city_district': 'Glenbrooke North', 'city': 'New Westminster', 'county': 'Metro Vancouver Regional District', 'state': 'British Columbia', 'postcode': 'V3N 3N4', 'country': 'Canada', 'country_code': 'ca'}",waste_basket,New Westminster,49.215626799999995,-122.92363059999998,,{},2012-04-05T07:52:40.000-07:00
"{'amenity': '6 St (SB) at 7 Ave', 'road': 'Sixth Street', 'neighbourhood': 'Glenbrook', 'city_district': 'Glenbrooke North', 'city': 'New Westminster', 'county': 'Metro Vancouver Regional District', 'state': 'British Columbia', 'postcode': 'V3L 3C5', 'country': 'Canada', 'country_code': 'ca'}",waste_basket,New Westminster,49.2142375,-122.9218325,6 St (SB) at 7 Ave,"{'bus': 'yes', 'shelter': 'yes', 'bench': 'yes', 'public_transport': 'platform', 'highway': 'bus_stop', 'operator': 'Coast Mountain Bus Company', 'network': 'Translink'}",2020-03-13T05:23:59.000-07:00
"{'highway': '8 Ave (EB) at 10 St', 'road': 'Eighth Avenue', 'neighbourhood': 'Uptown', 'city_district': 'Moody Park', 'city': 'New Westminster', 'county': 'Metro Vancouver Regional District', 'state': 'British Columbia', 'postcode': 'V3M 2M9', 'country': 'Canada', 'country_code': 'ca'}",waste_basket,New Westminster,49.2126348,-122.93009350000001,8 Ave (EB) at 10 St,"{'bus': 'yes', 'shelter': 'no', 'bench': 'no', 'public_transport': 'platform', 'highway': 'bus_stop', 'operator': 'Coast Mountain Bus Company', 'network': 'Translink'}",2020-03-13T04:55:07.000-07:00
"{'highway': '8 Ave (EB) at 12 St', 'road': 'Eighth Avenue', 'neighbourhood': 'Kelvin', 'city_district': 'Moody Park', 'city': 'New Westminster', 'county': 'Metro Vancouver Regional District', 'state': 'British Columbia', 'postcode': 'V3M 4K4', 'country': 'Canada', 'country_code': 'ca'}",waste_basket,New Westminster,49.210631799999994,-122.9337748,,{},2012-04-05T07:46:13.000-07:00
