address,amenity,city,lat,lon,name,tags,timestamp
"{'amenity': 'Elgin Medical Clinic', 'road': 'Elgin Avenue', 'retail': 'Downtown Poco', 'city': 'Port Coquitlam', 'county': 'Metro Vancouver Regional District', 'state': 'British Columbia', 'postcode': 'V3C 3B2', 'country': 'Canada', 'country_code': 'ca'}",doctors,Port Coquitlam,49.2631701,-122.7784988,Elgin Medical Clinic,{},2018-05-21T05:29:33.000-07:00
"{'amenity': 'Elgin Chiropractic', 'road': 'Elgin Avenue', 'retail': 'Downtown Poco', 'city': 'Port Coquitlam', 'county': 'Metro Vancouver Regional District', 'state': 'British Columbia', 'postcode': 'V3C 3B2', 'country': 'Canada', 'country_code': 'ca'}",doctors,Port Coquitlam,49.26323370000001,-122.77857759999998,Elgin Chiropractic,{},2018-05-21T05:29:34.000-07:00
"{'building': 'Terry Fox Secondary', 'road': 'Riverwood Gate', 'suburb': 'Birchland Manor', 'city': 'Port Coquitlam', 'county': 'Metro Vancouver Regional District', 'state': 'British Columbia', 'postcode': 'V3B8A2', 'country': 'Canada', 'country_code': 'ca'}",school,Port Coquitlam,49.26244970000001,-122.74823970000001,Terry Fox Senior Secondary School,{},2010-09-01T07:32:36.000-07:00
"{'amenity': 'TAG Gymnastics', 'house_number': '1611', 'road': 'Broadway Street', 'suburb': 'Mary Hill', 'city': 'Port Coquitlam', 'county': 'Metro Vancouver Regional District', 'state': 'British Columbia', 'postcode': 'V3C 2M8', 'country': 'Canada', 'country_code': 'ca'}",school,Port Coquitlam,49.24487110000001,-122.7645715,TAG Gymnastics,"{'addr:housenumber': '1611', 'name:en': 'TAG Gymnastics', 'addr:street': 'Broadway Street'}",2020-02-22T02:13:00.000-08:00
"{'amenity': 'Coast Meridian Animal Hospital', 'road': 'Prairie Avenue', 'suburb': 'Birchland Manor', 'city': 'Port Coquitlam', 'county': 'Metro Vancouver Regional District', 'state': 'British Columbia', 'postcode': 'V3B 1S9', 'country': 'Canada', 'country_code': 'ca'}",veterinary,Port Coquitlam,49.271395,-122.7547928,Coast Meridian Animal Hospital,{},2016-03-16T00:12:33.000-07:00
"{'road': 'Confederation Drive', 'suburb': 'Mary Hill', 'city': 'Port Coquitlam', 'county': 'Metro Vancouver Regional District', 'state': 'British Columbia', 'postcode': 'V3C 5Y6', 'country': 'Canada', 'country_code': 'ca'}",bbq,Port Coquitlam,49.23766989999999,-122.7827469,,{},2012-03-01T05:24:27.000-08:00
"{'amenity': 'Shell', 'road': 'Pitt River Road', 'suburb': 'Mary Hill', 'city': 'Port Coquitlam', 'county': 'Metro Vancouver Regional District', 'state': 'British Columbia', 'postcode': 'V3C 5K4', 'country': 'Canada', 'country_code': 'ca'}",car_wash,Port Coquitlam,49.2347417,-122.77033359999999,Shell,"{'opening_hours': '24/7', 'self_service': 'yes', 'automated': 'yes'}",2013-01-05T07:16:44.000-08:00
"{'amenity': 'A&W', 'house_number': '859', 'road': 'Sherling Avenue', 'retail': 'Fremont Village', 'city': 'Port Coquitlam', 'county': 'Metro Vancouver Regional District', 'state': 'British Columbia', 'postcode': 'V3B 0G0', 'country': 'Canada', 'country_code': 'ca'}",fountain,Port Coquitlam,49.252447,-122.73687269999999,,{},2020-03-31T00:14:11.000-07:00
"{'road': 'Lougheed Highway', 'city': 'Port Coquitlam', 'county': 'Metro Vancouver Regional District', 'state': 'British Columbia', 'postcode': 'V3B 0G9', 'country': 'Canada', 'country_code': 'ca'}",fountain,Port Coquitlam,49.251870200000006,-122.73716110000001,,{},2020-03-31T00:14:11.000-07:00
"{'amenity': ""BrightStart Children's Academy"", 'house_number': '1141', 'road': 'Riverwood Gate', 'suburb': 'Birchland Manor', 'city': 'Port Coquitlam', 'county': 'Metro Vancouver Regional District', 'state': 'British Columbia', 'postcode': 'V3B8A2', 'country': 'Canada', 'country_code': 'ca'}",childcare,Port Coquitlam,49.26415479999999,-122.74682790000001,BrightStart Children's Academy,"{'addr:province': 'BC', 'addr:housenumber': '1141', 'addr:street': 'Riverwood Gate', 'addr:postcode': 'V3B8A2', 'addr:city': 'Port Coquitlam'}",2020-04-05T23:45:42.000-07:00
"{'road': 'Poco Trail', 'suburb': 'Mary Hill', 'city': 'Port Coquitlam', 'county': 'Metro Vancouver Regional District', 'state': 'British Columbia', 'postcode': 'V3C 5W9', 'country': 'Canada', 'country_code': 'ca'}",shelter,Port Coquitlam,49.2417414,-122.7535346,,"{'shelter_type': 'gazebo', 'bin': 'yes'}",2016-09-14T22:42:08.000-07:00
"{'amenity': 'Royal Canadian Legion - Branch 133 (Port Coquitlam)', 'house_number': '2675', 'road': 'Shaughnessy Street', 'retail': 'Downtown Poco', 'city': 'Port Coquitlam', 'county': 'Metro Vancouver Regional District', 'state': 'British Columbia', 'postcode': 'V3C 3G2', 'country': 'Canada', 'country_code': 'ca'}",social_centre,Port Coquitlam,49.26428,-122.7803736,Royal Canadian Legion - Branch 133 (Port Coquitlam),"{'addr:housenumber': '2675', 'addr:street': 'Shaughnessy Street', 'phone': '+1-604-942-8911'}",2018-06-20T15:10:26.000-07:00
"{'building': 'The Shaughnessy', 'house_number': '2789', 'road': 'Shaughnessy Street', 'city': 'Port Coquitlam', 'county': 'Metro Vancouver Regional District', 'state': 'British Columbia', 'postcode': 'V3C 3H1', 'country': 'Canada', 'country_code': 'ca'}",drinking_water,Port Coquitlam,49.266661799999994,-122.77945449999999,,{},2016-08-16T00:29:55.000-07:00
"{'amenity': 'Chevron', 'road': 'Wilson Avenue', 'retail': 'Downtown Poco', 'city': 'Port Coquitlam', 'county': 'Metro Vancouver Regional District', 'state': 'British Columbia', 'postcode': 'V3C 3G0', 'country': 'Canada', 'country_code': 'ca'}",fuel,Port Coquitlam,49.2610722,-122.78340120000001,Chevron,"{'brand': 'Chevron', 'fuel:octane_91': 'yes'}",2014-10-07T21:08:07.000-07:00
"{'amenity': 'Shell', 'road': 'Pitt River Road', 'suburb': 'Mary Hill', 'city': 'Port Coquitlam', 'county': 'Metro Vancouver Regional District', 'state': 'British Columbia', 'postcode': 'V3C 3B7', 'country': 'Canada', 'country_code': 'ca'}",fuel,Port Coquitlam,49.2547691,-122.78313259999999,Shell,"{'fuel:biogas': 'no', 'fuel:electricity': 'no', 'fuel:biodiesel': 'no', 'brand': 'Shell', 'fuel:octane_91': 'yes'}",2014-10-07T20:31:10.000-07:00
"{'amenity': 'Petro-Canada', 'road': 'Prairie Avenue', 'suburb': 'Birchland Manor', 'city': 'Port Coquitlam', 'county': 'Metro Vancouver Regional District', 'state': 'British Columbia', 'postcode': 'V3B 3N3', 'country': 'Canada', 'country_code': 'ca'}",fuel,Port Coquitlam,49.2713968,-122.75670670000001,Petro-Canada,{},2016-03-16T00:08:35.000-07:00
"{'amenity': 'Esso', 'house_number': '2090', 'road': 'Lougheed Highway', 'city': 'Port Coquitlam', 'county': 'Metro Vancouver Regional District', 'state': 'British Columbia', 'postcode': 'V3C 3H1', 'country': 'Canada', 'country_code': 'ca'}",fuel,Port Coquitlam,49.265798499999995,-122.7736541,Esso,"{'brand:wikidata': 'Q867662', 'addr:housenumber': '2090', 'brand:wikipedia': 'en:Esso', 'addr:street': 'Lougheed Highway', 'brand': 'Esso', 'addr:city': 'Port Coquitlam'}",2019-09-13T13:57:05.000-07:00
"{'amenity': 'Shell', 'road': 'Harbour Street', 'suburb': 'Mary Hill', 'city': 'Port Coquitlam', 'county': 'Metro Vancouver Regional District', 'state': 'British Columbia', 'postcode': 'V3C 5K4', 'country': 'Canada', 'country_code': 'ca'}",fuel,Port Coquitlam,49.235141,-122.7704946,Shell,"{'opening_hours': '24/7', 'fuel:diesel': 'yes', 'brand': 'Shell', 'fuel:octane_91': 'yes'}",2018-04-14T11:08:29.000-07:00
"{'amenity': 'Chevron', 'road': 'Kingsway Avenue', 'city': 'Port Coquitlam', 'county': 'Metro Vancouver Regional District', 'state': 'British Columbia', 'postcode': 'V3C 6N6', 'country': 'Canada', 'country_code': 'ca'}",fuel,Port Coquitlam,49.2468168,-122.74928090000002,,"{'brand': 'Chevron', 'operator': 'Chevron'}",2017-07-12T04:02:03.000-07:00
"{'road': 'Coast Meridian Road', 'city': 'Port Coquitlam', 'county': 'Metro Vancouver Regional District', 'state': 'British Columbia', 'postcode': 'V3C 2A0', 'country': 'Canada', 'country_code': 'ca'}",parking,Port Coquitlam,49.2410498,-122.75350060000001,,{},2010-02-10T01:54:55.000-08:00
"{'road': 'Shaughnessy Street', 'suburb': 'Mary Hill', 'city': 'Port Coquitlam', 'county': 'Metro Vancouver Regional District', 'state': 'British Columbia', 'postcode': 'V3C 6L9', 'country': 'Canada', 'country_code': 'ca'}",parking,Port Coquitlam,49.237970399999995,-122.7911313,,{},2012-03-15T06:20:59.000-07:00
"{'amenity': 'Minnekhada Middle School', 'road': 'Regina Street', 'suburb': 'Birchland Manor', 'city': 'Port Coquitlam', 'county': 'Metro Vancouver Regional District', 'state': 'British Columbia', 'postcode': 'V3B 1S9', 'country': 'Canada', 'country_code': 'ca'}",parking,Port Coquitlam,49.2734944,-122.75436529999999,,{},2018-05-20T23:58:44.000-07:00
"{'amenity': 'Samz', 'road': 'Elgin Avenue', 'retail': 'Downtown Poco', 'city': 'Port Coquitlam', 'county': 'Metro Vancouver Regional District', 'state': 'British Columbia', 'postcode': 'V3C 3G2', 'country': 'Canada', 'country_code': 'ca'}",pub,Port Coquitlam,49.2637537,-122.7814095,Samz,{},2014-09-30T02:07:23.000-07:00
"{'amenity': 'Meridian Arms Pub', 'house_number': '3261', 'road': 'Coast Meridian Road', 'suburb': 'Birchland Manor', 'city': 'Port Coquitlam', 'county': 'Metro Vancouver Regional District', 'state': 'British Columbia', 'postcode': 'V3B 3N3', 'country': 'Canada', 'country_code': 'ca'}",pub,Port Coquitlam,49.2719209,-122.75715500000001,Meridian Arms Pub,"{'opening_hours': 'Mo-We 11:00-00:00', 'addr:housenumber': '3261', 'addr:street': 'Coast Meridian Road', 'smoking': 'outside', 'addr:city': 'Port Coquitlam'}",2019-09-02T22:08:25.000-07:00
"{'amenity': 'The Bennett Craft & Kitchen', 'house_number': '2099', 'road': 'Lougheed Highway', 'city': 'Port Coquitlam', 'county': 'Metro Vancouver Regional District', 'state': 'British Columbia', 'postcode': 'V3C 3H1', 'country': 'Canada', 'country_code': 'ca'}",pub,Port Coquitlam,49.2668041,-122.77276029999999,The Bennett Craft & Kitchen,"{'addr:housenumber': '2099', 'addr:street': 'Lougheed Highway', 'addr:city': 'Port Coquitlam'}",2019-09-13T13:56:49.000-07:00
"{'amenity': 'Cat and Fiddle', 'house_number': '1979', 'road': 'Brown Street', 'suburb': 'Mary Hill', 'city': 'Port Coquitlam', 'county': 'Metro Vancouver Regional District', 'state': 'British Columbia', 'postcode': 'V3C 1M9', 'country': 'Canada', 'country_code': 'ca'}",pub,Port Coquitlam,49.2527999,-122.7672467,Cat and Fiddle,"{'opening_hours': 'Mo-Th 11:00-01:00; Fr 11:00-02:00; Su 11:00-24:00', 'addr:housenumber': '1979', 'website': 'https://catandfiddlepub.ca/', 'addr:street': 'Brown Street', 'phone': '+1-604-941-8822'}",2020-01-05T06:40:23.000-08:00
"{'amenity': 'HSBC', 'road': 'Lougheed Highway', 'city': 'Port Coquitlam', 'county': 'Metro Vancouver Regional District', 'state': 'British Columbia', 'postcode': 'V3B 1B5', 'country': 'Canada', 'country_code': 'ca'}",bank,Port Coquitlam,49.2732041,-122.78832079999998,HSBC,"{'brand:wikidata': 'Q190464', 'brand': 'HSBC', 'brand:wikipedia': 'en:HSBC'}",2019-04-07T19:33:26.000-07:00
"{'amenity': 'Vancity', 'house_number': '2850', 'road': 'Lougheed Highway', 'city': 'Port Coquitlam', 'county': 'Metro Vancouver Regional District', 'state': 'British Columbia', 'postcode': 'V3C 3H1', 'country': 'Canada', 'country_code': 'ca'}",bank,Port Coquitlam,49.2661482,-122.77442920000001,Vancity,"{'brand:wikidata': 'Q7914085', 'official_name': 'Vancouver City Savings Credit Union', 'addr:housenumber': '2850', 'brand:wikipedia': 'en:Vancity', 'addr:street': 'Lougheed Highway', 'brand': 'Vancity', 'addr:unit': '7100', 'addr:city': 'Port Coquitlam'}",2019-09-13T13:57:05.000-07:00
"{'amenity': 'TD Canada Trust', 'road': 'Coast Meridian Road', 'suburb': 'Birchland Manor', 'city': 'Port Coquitlam', 'county': 'Metro Vancouver Regional District', 'state': 'British Columbia', 'postcode': 'V3B 3N3', 'country': 'Canada', 'country_code': 'ca'}",bank,Port Coquitlam,49.27063010000001,-122.7556987,TD Canada Trust,{},2016-03-16T00:15:32.000-07:00
"{'amenity': 'Freshii', 'house_number': '2325', 'road': 'Ottawa Street', 'suburb': 'Birchland Manor', 'city': 'Port Coquitlam', 'county': 'Metro Vancouver Regional District', 'state': 'British Columbia', 'postcode': 'V3B 8A4', 'country': 'Canada', 'country_code': 'ca'}",bank,Port Coquitlam,49.2568044,-122.74730600000001,Vancity,"{'brand:wikidata': 'Q7914085', 'official_name': 'Vancouver City Savings Credit Union', 'addr:housenumber': '2325', 'brand:wikipedia': 'en:Vancity', 'addr:street': 'Ottawa Street', 'brand': 'Vancity', 'addr:unit': '130', 'addr:city': 'Port Coquitlam'}",2019-09-24T15:52:27.000-07:00
"{'amenity': 'CIBC', 'house_number': '890', 'road': 'Sherling Avenue', 'retail': 'Fremont Village', 'city': 'Port Coquitlam', 'county': 'Metro Vancouver Regional District', 'state': 'British Columbia', 'postcode': 'V3B 0G0', 'country': 'Canada', 'country_code': 'ca'}",bank,Port Coquitlam,49.2532257,-122.74098500000001,CIBC,"{'brand:wikidata': 'Q666694', 'addr:housenumber': '890', 'brand:wikipedia': 'en:Canadian Imperial Bank of Commerce', 'addr:street': 'Village Drive', 'brand': 'CIBC', 'addr:city': 'Port Coquitlam'}",2019-09-13T13:57:05.000-07:00
"{'amenity': 'Sharons Credit Union', 'house_number': '1125', 'road': 'Nicola Avenue', 'suburb': 'Birchland Manor', 'city': 'Port Coquitlam', 'county': 'Metro Vancouver Regional District', 'state': 'British Columbia', 'postcode': 'V3B 8A4', 'country': 'Canada', 'country_code': 'ca'}",bank,Port Coquitlam,49.2580719,-122.74631310000001,Sharons Credit Union,"{'addr:housenumber': '1125', 'addr:street': 'Nicola Avenue', 'atm': 'yes', 'addr:unit': '100', 'addr:city': 'Port Coquitlam'}",2019-09-13T13:56:49.000-07:00
"{'house_number': '2775', 'road': 'Lougheed Highway', 'city': 'Port Coquitlam', 'county': 'Metro Vancouver Regional District', 'state': 'British Columbia', 'postcode': 'V3B 5Y9', 'country': 'Canada', 'country_code': 'ca'}",bank,Port Coquitlam,49.2741529,-122.7890051,TD Canada Trust,"{'brand:wikidata': 'Q1080670', 'brand': 'TD Canada Trust', 'brand:wikipedia': 'en:TD Canada Trust', 'operator': 'TD Canada Trust'}",2019-04-07T19:33:25.000-07:00
"{'amenity': 'RBC', 'road': 'Sherling Avenue', 'retail': 'Fremont Village', 'city': 'Port Coquitlam', 'county': 'Metro Vancouver Regional District', 'state': 'British Columbia', 'postcode': 'V3B 0G0', 'country': 'Canada', 'country_code': 'ca'}",bank,Port Coquitlam,49.2532685,-122.73938670000001,RBC,"{'brand:wikidata': 'Q735261', 'official_name': 'Royal Bank of Canada', 'name:en': 'RBC', 'brand': 'RBC', 'brand:wikipedia': 'en:Royal Bank of Canada'}",2019-09-10T18:06:48.000-07:00
"{'amenity': 'RBC Bank', 'road': 'McAllister Avenue', 'retail': 'Downtown Poco', 'city': 'Port Coquitlam', 'county': 'Metro Vancouver Regional District', 'state': 'British Columbia', 'postcode': 'V3C 3B2', 'country': 'Canada', 'country_code': 'ca'}",bank,Port Coquitlam,49.262783299999995,-122.78143929999999,RBC Bank,{},2018-05-21T05:29:34.000-07:00
"{'amenity': 'TD Canada Trust', 'road': 'Ottawa Street', 'suburb': 'Birchland Manor', 'city': 'Port Coquitlam', 'county': 'Metro Vancouver Regional District', 'state': 'British Columbia', 'postcode': 'V3B 8A4', 'country': 'Canada', 'country_code': 'ca'}",bank,Port Coquitlam,49.2571236,-122.746978,TD Canada Trust,"{'brand:wikidata': 'Q1080670', 'brand': 'TD Canada Trust', 'brand:wikipedia': 'en:TD Canada Trust'}",2019-09-24T15:52:27.000-07:00
"{'amenity': 'Scotiabank', 'road': 'Shaughnessy Street', 'city': 'Port Coquitlam', 'county': 'Metro Vancouver Regional District', 'state': 'British Columbia', 'postcode': 'V3C 3H1', 'country': 'Canada', 'country_code': 'ca'}",bank,Port Coquitlam,49.265583899999996,-122.7772876,Scotiabank,{},2019-07-29T07:37:17.000-07:00
"{'amenity': 'RBC Royal Bank', 'road': 'Coast Meridian Road', 'suburb': 'Lincoln Park', 'city': 'Port Coquitlam', 'county': 'Metro Vancouver Regional District', 'state': 'British Columbia', 'postcode': 'V3B 3N7', 'country': 'Canada', 'country_code': 'ca'}",bank,Port Coquitlam,49.273004799999995,-122.75645779999999,RBC Royal Bank,{},2018-08-31T04:07:00.000-07:00
"{'road': 'Elbow Place', 'suburb': 'Birchland Manor', 'city': 'Port Coquitlam', 'county': 'Metro Vancouver Regional District', 'state': 'British Columbia', 'postcode': 'V3B 8A7', 'country': 'Canada', 'country_code': 'ca'}",bicycle_parking,Port Coquitlam,49.265829,-122.7395429,,{},2018-05-12T21:40:20.000-07:00
"{'road': 'Elbow Place', 'suburb': 'Birchland Manor', 'city': 'Port Coquitlam', 'county': 'Metro Vancouver Regional District', 'state': 'British Columbia', 'postcode': 'V3B 8A7', 'country': 'Canada', 'country_code': 'ca'}",bicycle_parking,Port Coquitlam,49.2644519,-122.7398077,,{},2018-05-12T21:40:20.000-07:00
"{'building': 'Hyde Creek Recreational Centre', 'road': 'Poco Trail/TCT', 'suburb': 'Sun Valley', 'city': 'Port Coquitlam', 'county': 'Metro Vancouver Regional District', 'state': 'British Columbia', 'postcode': 'V3B 5A8', 'country': 'Canada', 'country_code': 'ca'}",bicycle_parking,Port Coquitlam,49.2756842,-122.751593,,{},2016-08-16T00:29:54.000-07:00
"{'amenity': 'Canada Post', 'road': 'Salisbury Avenue', 'suburb': 'Birchland Manor', 'city': 'Port Coquitlam', 'county': 'Metro Vancouver Regional District', 'state': 'British Columbia', 'postcode': 'V3B 3N0', 'country': 'Canada', 'country_code': 'ca'}",post_box,Port Coquitlam,49.272041200000004,-122.75696780000001,Canada Post,{'operator': 'Canada Post'},2020-04-22T16:17:22.000-07:00
"{'amenity': 'Poco Dental', 'road': 'Shaughnessy Street', 'city': 'Port Coquitlam', 'county': 'Metro Vancouver Regional District', 'state': 'British Columbia', 'postcode': 'V3C 3H1', 'country': 'Canada', 'country_code': 'ca'}",dentist,Port Coquitlam,49.2666398,-122.7764574,Poco Dental,{'healthcare': 'dentist'},2020-03-10T20:21:55.000-07:00
"{'amenity': 'PharmaChoice', 'house_number': '2529', 'road': 'Shaughnessy Street', 'retail': 'Downtown Poco', 'city': 'Port Coquitlam', 'county': 'Metro Vancouver Regional District', 'state': 'British Columbia', 'postcode': 'V3C 3W4', 'country': 'Canada', 'country_code': 'ca'}",post_office,Port Coquitlam,49.2616016,-122.7830116,Shaughnessy,"{'brand:wikidata': 'Q1032001', 'addr:postcode': 'V3C 3G0', 'brand': 'Canada Post', 'brand:wikipedia': 'en:Canada Post', 'operator': 'Canada Post'}",2020-02-22T00:09:07.000-08:00
"{'amenity': 'Fremont Village', 'road': 'Sherling Avenue', 'retail': 'Fremont Village', 'city': 'Port Coquitlam', 'county': 'Metro Vancouver Regional District', 'state': 'British Columbia', 'postcode': 'V3B 0G0', 'country': 'Canada', 'country_code': 'ca'}",post_office,Port Coquitlam,49.25299570000001,-122.7399288,Fremont Village,"{'brand:wikidata': 'Q1032001', 'addr:postcode': 'V3B 0G0', 'brand': 'Canada Post', 'brand:wikipedia': 'en:Canada Post', 'operator': 'Canada Post'}",2020-02-22T00:09:08.000-08:00
"{'amenity': 'Port Coquitlam Delivery Facility', 'house_number': '1628', 'road': 'Industrial Avenue', 'suburb': 'Mary Hill', 'city': 'Port Coquitlam', 'county': 'Metro Vancouver Regional District', 'state': 'British Columbia', 'postcode': 'V3C 2A0', 'country': 'Canada', 'country_code': 'ca'}",post_office,Port Coquitlam,49.245273499999996,-122.75803959999999,Port Coquitlam Delivery Facility,"{'brand:wikidata': 'Q1032001', 'addr:housenumber': '1628', 'brand:wikipedia': 'en:Canada Post', 'addr:street': 'Industrial Avenue', 'addr:postcode': 'V3C 2A0', 'brand': 'Canada Post', 'operator': 'Canada Post'}",2020-03-29T23:51:13.000-07:00
"{'amenity': 'Northside', 'road': 'Salisbury Avenue', 'suburb': 'Birchland Manor', 'city': 'Port Coquitlam', 'county': 'Metro Vancouver Regional District', 'state': 'British Columbia', 'postcode': 'V3B 3N0', 'country': 'Canada', 'country_code': 'ca'}",post_office,Port Coquitlam,49.2721559,-122.7571632,Northside,"{'brand:wikidata': 'Q1032001', 'addr:postcode': 'V3B 3N0', 'brand': 'Canada Post', 'brand:wikipedia': 'en:Canada Post', 'operator': 'Canada Post'}",2020-02-22T18:27:58.000-08:00
"{'road': 'Poco Trail', 'suburb': 'Mary Hill', 'city': 'Port Coquitlam', 'county': 'Metro Vancouver Regional District', 'state': 'British Columbia', 'postcode': 'V3C 6K8', 'country': 'Canada', 'country_code': 'ca'}",toilets,Port Coquitlam,49.2587938,-122.79386509999999,,{},2010-08-26T10:01:03.000-07:00
"{'road': 'Lions Way', 'city': 'Port Coquitlam', 'county': 'Metro Vancouver Regional District', 'state': 'British Columbia', 'postcode': 'V3C 3H1', 'country': 'Canada', 'country_code': 'ca'}",toilets,Port Coquitlam,49.2665618,-122.7788601,,"{'toilets:disposal': 'flush', 'access': 'yes'}",2020-03-09T17:08:27.000-07:00
"{'road': 'Poco Trail', 'suburb': 'Mary Hill', 'city': 'Port Coquitlam', 'county': 'Metro Vancouver Regional District', 'state': 'British Columbia', 'postcode': 'V3C 5K4', 'country': 'Canada', 'country_code': 'ca'}",toilets,Port Coquitlam,49.2286102,-122.7760622,,"{'toilets:disposal': 'flush', 'access': 'public'}",2016-08-09T02:01:09.000-07:00
"{'road': 'Lombardy Drive', 'suburb': 'Lincoln Park', 'city': 'Port Coquitlam', 'county': 'Metro Vancouver Regional District', 'state': 'British Columbia', 'postcode': 'V3B 5B4', 'country': 'Canada', 'country_code': 'ca'}",toilets,Port Coquitlam,49.2747623,-122.7403432,,{},2018-05-21T00:18:30.000-07:00
"{'road': 'Grant Avenue', 'suburb': 'Birchland Manor', 'city': 'Port Coquitlam', 'county': 'Metro Vancouver Regional District', 'state': 'British Columbia', 'postcode': 'V3B 3N3', 'country': 'Canada', 'country_code': 'ca'}",toilets,Port Coquitlam,49.270145,-122.76226570000001,,{},2015-08-22T00:09:34.000-07:00
"{'road': 'Elbow Place', 'suburb': 'Birchland Manor', 'city': 'Port Coquitlam', 'county': 'Metro Vancouver Regional District', 'state': 'British Columbia', 'postcode': 'V3B 8A7', 'country': 'Canada', 'country_code': 'ca'}",waste_basket,Port Coquitlam,49.264497399999996,-122.7396817,,{},2018-05-12T21:40:20.000-07:00
"{'road': 'Elbow Place', 'suburb': 'Birchland Manor', 'city': 'Port Coquitlam', 'county': 'Metro Vancouver Regional District', 'state': 'British Columbia', 'postcode': 'V3B 8A7', 'country': 'Canada', 'country_code': 'ca'}",waste_basket,Port Coquitlam,49.2657467,-122.7394986,,{},2018-05-12T21:40:20.000-07:00
"{'road': 'Poco Trail', 'suburb': 'Mary Hill', 'city': 'Port Coquitlam', 'county': 'Metro Vancouver Regional District', 'state': 'British Columbia', 'postcode': 'V3C 5W9', 'country': 'Canada', 'country_code': 'ca'}",waste_basket,Port Coquitlam,49.2440964,-122.7468259,,{},2018-05-13T20:57:06.000-07:00
"{'road': 'Poco Trail/TCT', 'suburb': 'Sun Valley', 'city': 'Port Coquitlam', 'county': 'Metro Vancouver Regional District', 'state': 'British Columbia', 'postcode': 'V3B 5A8', 'country': 'Canada', 'country_code': 'ca'}",waste_basket,Port Coquitlam,49.2828794,-122.7384737,,{},2016-08-16T00:29:54.000-07:00
"{'road': 'Poco Trail/TCT', 'suburb': 'Lincoln Park', 'city': 'Port Coquitlam', 'county': 'Metro Vancouver Regional District', 'state': 'British Columbia', 'postcode': 'V3B 3T7', 'country': 'Canada', 'country_code': 'ca'}",waste_basket,Port Coquitlam,49.2781995,-122.7650746,,{},2016-08-16T00:29:54.000-07:00
"{'road': 'Wellington Street', 'suburb': 'Lincoln Park', 'city': 'Port Coquitlam', 'county': 'Metro Vancouver Regional District', 'state': 'British Columbia', 'postcode': 'V3B 3T7', 'country': 'Canada', 'country_code': 'ca'}",waste_basket,Port Coquitlam,49.27677620000001,-122.761852,,{},2016-08-16T00:29:54.000-07:00
"{'road': 'Poco Trail/TCT', 'suburb': 'Lincoln Park', 'city': 'Port Coquitlam', 'county': 'Metro Vancouver Regional District', 'state': 'British Columbia', 'postcode': 'V3B 3N7', 'country': 'Canada', 'country_code': 'ca'}",waste_basket,Port Coquitlam,49.276602399999994,-122.75526940000002,,{},2016-08-16T00:29:54.000-07:00
"{'building': 'Hyde Creek Recreational Centre', 'road': 'Poco Trail/TCT', 'suburb': 'Sun Valley', 'city': 'Port Coquitlam', 'county': 'Metro Vancouver Regional District', 'state': 'British Columbia', 'postcode': 'V3B 5A8', 'country': 'Canada', 'country_code': 'ca'}",waste_basket,Port Coquitlam,49.275760299999995,-122.7516263,,{},2016-08-16T00:29:54.000-07:00
"{'road': 'Poco Trail/TCT', 'suburb': 'Sun Valley', 'city': 'Port Coquitlam', 'county': 'Metro Vancouver Regional District', 'state': 'British Columbia', 'postcode': 'V3B 5A8', 'country': 'Canada', 'country_code': 'ca'}",waste_basket,Port Coquitlam,49.285413299999995,-122.73350649999999,,{},2016-08-16T00:29:54.000-07:00
"{'road': 'Poco Trail', 'city': 'Port Coquitlam', 'county': 'Metro Vancouver Regional District', 'state': 'British Columbia', 'postcode': 'V3C 3G0', 'country': 'Canada', 'country_code': 'ca'}",waste_basket,Port Coquitlam,49.2669611,-122.78021329999999,,{},2016-08-16T00:29:54.000-07:00
"{'road': 'Poco Trail/TCT', 'city': 'Port Coquitlam', 'county': 'Metro Vancouver Regional District', 'state': 'British Columbia', 'postcode': 'V3B 0N4', 'country': 'Canada', 'country_code': 'ca'}",waste_basket,Port Coquitlam,49.2785173,-122.7105321,,{},2016-08-16T00:29:53.000-07:00
"{'road': 'Poco Trail/TCT', 'city': 'Port Coquitlam', 'county': 'Metro Vancouver Regional District', 'state': 'British Columbia', 'postcode': 'V3B 0N4', 'country': 'Canada', 'country_code': 'ca'}",waste_basket,Port Coquitlam,49.271218,-122.7142087,,{},2016-08-16T00:29:53.000-07:00
"{'road': 'Poco Trail/TCT', 'city': 'Port Coquitlam', 'county': 'Metro Vancouver Regional District', 'state': 'British Columbia', 'postcode': 'V3B 0N4', 'country': 'Canada', 'country_code': 'ca'}",waste_basket,Port Coquitlam,49.258508,-122.7228499,,{},2016-08-16T00:29:53.000-07:00
"{'road': 'Poco Trail/TCT', 'city': 'Port Coquitlam', 'county': 'Metro Vancouver Regional District', 'state': 'British Columbia', 'postcode': 'V3B 0N4', 'country': 'Canada', 'country_code': 'ca'}",waste_basket,Port Coquitlam,49.2532418,-122.7269388,,{},2016-08-16T00:29:53.000-07:00
"{'road': 'Patricia Bridge', 'city': 'Port Coquitlam', 'county': 'Metro Vancouver Regional District', 'state': 'British Columbia', 'postcode': 'V3C 3H1', 'country': 'Canada', 'country_code': 'ca'}",waste_basket,Port Coquitlam,49.2766893,-122.77578319999999,,{},2016-08-16T00:29:54.000-07:00
"{'building': 'The Shaughnessy', 'house_number': '2789', 'road': 'Shaughnessy Street', 'city': 'Port Coquitlam', 'county': 'Metro Vancouver Regional District', 'state': 'British Columbia', 'postcode': 'V3C 3H1', 'country': 'Canada', 'country_code': 'ca'}",waste_basket,Port Coquitlam,49.26656420000001,-122.77900249999999,,{},2016-08-16T00:29:54.000-07:00
"{'leisure': 'Outdoor Gym Station 4', 'road': 'Poco Trail', 'city': 'Port Coquitlam', 'county': 'Metro Vancouver Regional District', 'state': 'British Columbia', 'postcode': 'V3C 3G0', 'country': 'Canada', 'country_code': 'ca'}",waste_basket,Port Coquitlam,49.2649663,-122.781792,,{},2016-08-16T00:29:54.000-07:00
"{'road': 'Wilson Farm Dyke Trail', 'city': 'Port Coquitlam', 'county': 'Metro Vancouver Regional District', 'state': 'British Columbia', 'postcode': 'V3C 5Y6', 'country': 'Canada', 'country_code': 'ca'}",waste_basket,Port Coquitlam,49.2364984,-122.80038529999999,,{},2016-08-16T00:43:58.000-07:00
"{'road': 'Wilson Farm Dyke Trail', 'city': 'Port Coquitlam', 'county': 'Metro Vancouver Regional District', 'state': 'British Columbia', 'postcode': 'V3C 5Y6', 'country': 'Canada', 'country_code': 'ca'}",waste_basket,Port Coquitlam,49.2433026,-122.79957140000002,,{},2016-08-16T00:43:57.000-07:00
"{'road': 'Poco Trail', 'suburb': 'Mary Hill', 'city': 'Port Coquitlam', 'county': 'Metro Vancouver Regional District', 'state': 'British Columbia', 'postcode': 'V3C 6K8', 'country': 'Canada', 'country_code': 'ca'}",waste_basket,Port Coquitlam,49.257932399999994,-122.79210549999999,,{},2016-08-16T00:29:54.000-07:00
"{'road': 'Poco Trail/TCT', 'suburb': 'Sun Valley', 'city': 'Port Coquitlam', 'county': 'Metro Vancouver Regional District', 'state': 'British Columbia', 'postcode': 'V3B 5A8', 'country': 'Canada', 'country_code': 'ca'}",waste_basket,Port Coquitlam,49.281242,-122.72808329999998,,{},2016-08-09T01:42:27.000-07:00
"{'road': 'Poco Trail/TCT', 'suburb': 'Sun Valley', 'city': 'Port Coquitlam', 'county': 'Metro Vancouver Regional District', 'state': 'British Columbia', 'postcode': 'V3B 5A8', 'country': 'Canada', 'country_code': 'ca'}",waste_basket,Port Coquitlam,49.284698999999996,-122.7355963,,{},2016-08-09T01:42:27.000-07:00
"{'highway': 'Shaughnessy St (SB) at Mary Hill Bypass', 'road': 'Poco Trail', 'city': 'Port Coquitlam', 'county': 'Metro Vancouver Regional District', 'state': 'British Columbia', 'postcode': 'V3C 5Y6', 'country': 'Canada', 'country_code': 'ca'}",waste_basket,Port Coquitlam,49.228074400000004,-122.7958601,,{},2016-08-09T00:51:19.000-07:00
"{'road': 'Poco Trail', 'suburb': 'Mary Hill', 'city': 'Port Coquitlam', 'county': 'Metro Vancouver Regional District', 'state': 'British Columbia', 'postcode': 'V3C 5W9', 'country': 'Canada', 'country_code': 'ca'}",waste_basket,Port Coquitlam,49.2416303,-122.75317,,{},2016-09-15T22:18:06.000-07:00
"{'amenity': 'Blend Bubble Tea', 'house_number': '3266A', 'road': 'Coast Meridian Road', 'suburb': 'Birchland Manor', 'city': 'Port Coquitlam', 'county': 'Metro Vancouver Regional District', 'state': 'British Columbia', 'postcode': 'V3B 3N3', 'country': 'Canada', 'country_code': 'ca'}",cafe,Port Coquitlam,49.272054,-122.7557372,Blend Bubble Tea,"{'addr:housenumber': '3266A', 'addr:street': 'Coast Meridian Road', 'addr:city': 'Port Coquitlam'}",2019-09-13T13:57:04.000-07:00
"{'amenity': 'Starbucks', 'road': 'Prairie Avenue', 'suburb': 'Birchland Manor', 'city': 'Port Coquitlam', 'county': 'Metro Vancouver Regional District', 'state': 'British Columbia', 'postcode': 'V3B 1S9', 'country': 'Canada', 'country_code': 'ca'}",cafe,Port Coquitlam,49.2706869,-122.755531,Starbucks,{'cuisine': 'coffee_shop'},2016-03-16T00:15:32.000-07:00
"{'amenity': 'Squish Juicery', 'house_number': '2099', 'road': 'Lougheed Highway', 'city': 'Port Coquitlam', 'county': 'Metro Vancouver Regional District', 'state': 'British Columbia', 'postcode': 'V3C 3H1', 'country': 'Canada', 'country_code': 'ca'}",cafe,Port Coquitlam,49.2661564,-122.7727844,Squish Juicery,"{'addr:housenumber': '2099', 'addr:street': 'Lougheed Highway', 'addr:unit': '180B', 'addr:city': 'Port Coquitlam'}",2019-09-13T13:57:05.000-07:00
"{'amenity': ""Suzette's Cafe"", 'road': 'Kingsway Avenue', 'suburb': 'Mary Hill', 'city': 'Port Coquitlam', 'county': 'Metro Vancouver Regional District', 'state': 'British Columbia', 'postcode': 'V3C 6N6', 'country': 'Canada', 'country_code': 'ca'}",cafe,Port Coquitlam,49.2501178,-122.7564129,Suzette's Cafe,{'cuisine': 'sandwich'},2017-07-12T04:02:03.000-07:00
"{'amenity': 'Starbucks', 'road': 'Hawkins Street', 'retail': 'Fremont Village', 'city': 'Port Coquitlam', 'county': 'Metro Vancouver Regional District', 'state': 'British Columbia', 'postcode': 'V3B 0G0', 'country': 'Canada', 'country_code': 'ca'}",cafe,Port Coquitlam,49.2543347,-122.73798799999999,Starbucks,"{'brand:wikidata': 'Q37158', 'official_name': 'Starbucks Coffee', 'internet_access': 'wlan', 'brand:wikipedia': 'en:Starbucks', 'cuisine': 'coffee_shop', 'name:en': 'Starbucks', 'takeaway': 'yes', 'brand': 'Starbucks'}",2019-09-10T18:06:48.000-07:00
"{'amenity': 'Tim Hortons', 'road': 'Nicola Avenue', 'suburb': 'Birchland Manor', 'city': 'Port Coquitlam', 'county': 'Metro Vancouver Regional District', 'state': 'British Columbia', 'postcode': 'V3B 7Z1', 'country': 'Canada', 'country_code': 'ca'}",cafe,Port Coquitlam,49.257451,-122.74379420000001,Tim Hortons,"{'brand:wikidata': 'Q175106', 'brand:wikipedia': 'en:Tim Hortons', 'cuisine': 'coffee_shop', 'name:en': 'Tim Hortons', 'takeaway': 'yes', 'brand': 'Tim Hortons'}",2019-09-10T18:06:48.000-07:00
"{'amenity': 'Starbucks', 'house_number': '2840', 'road': 'Oxford Street', 'city': 'Port Coquitlam', 'county': 'Metro Vancouver Regional District', 'state': 'British Columbia', 'postcode': 'V3B 1E4', 'country': 'Canada', 'country_code': 'ca'}",cafe,Port Coquitlam,49.2638304,-122.766795,Starbucks,{},2016-12-20T20:50:23.000-08:00
"{'amenity': 'Waves', 'house_number': '2748', 'road': 'Lougheed Highway', 'city': 'Port Coquitlam', 'county': 'Metro Vancouver Regional District', 'state': 'British Columbia', 'postcode': 'V3B 1B5', 'country': 'Canada', 'country_code': 'ca'}",cafe,Port Coquitlam,49.2721862,-122.7899314,Waves,"{'addr:housenumber': '2748', 'addr:street': 'Lougheed Highway', 'addr:unit': '300A', 'addr:city': 'Port Coquitlam'}",2019-09-13T13:57:00.000-07:00
"{'amenity': 'Tim Hortons', 'road': 'Kingsway Avenue', 'city': 'Port Coquitlam', 'county': 'Metro Vancouver Regional District', 'state': 'British Columbia', 'postcode': 'V3C 6N6', 'country': 'Canada', 'country_code': 'ca'}",cafe,Port Coquitlam,49.2469482,-122.749874,Tim Hortons,"{'brand:wikidata': 'Q175106', 'brand:wikipedia': 'en:Tim Hortons', 'drive_through': 'yes', 'cuisine': 'coffee_shop', 'takeaway': 'yes', 'brand': 'Tim Hortons'}",2020-02-22T02:15:31.000-08:00
"{'amenity': 'Omega Pizza & Wings', 'road': 'McAllister Avenue', 'retail': 'Downtown Poco', 'city': 'Port Coquitlam', 'county': 'Metro Vancouver Regional District', 'state': 'British Columbia', 'postcode': 'V3C 3B2', 'country': 'Canada', 'country_code': 'ca'}",fast_food,Port Coquitlam,49.262805900000004,-122.78061100000001,Omega Pizza & Wings,"{'phone': '+1-604-941-0341', 'cuisine': 'pizza'}",2018-02-09T04:59:38.000-08:00
"{'amenity': 'Subway', 'road': 'Mary Hill Bypass', 'suburb': 'Mary Hill', 'city': 'Port Coquitlam', 'county': 'Metro Vancouver Regional District', 'state': 'British Columbia', 'postcode': 'V3C 2A0', 'country': 'Canada', 'country_code': 'ca'}",fast_food,Port Coquitlam,49.241849200000004,-122.7614665,Subway,"{'cuisine': 'sandwich', 'takeaway': 'yes'}",2017-07-12T04:02:02.000-07:00
"{'amenity': 'Subway', 'road': 'Lougheed Highway', 'city': 'Port Coquitlam', 'county': 'Metro Vancouver Regional District', 'state': 'British Columbia', 'postcode': 'V3B 1B5', 'country': 'Canada', 'country_code': 'ca'}",fast_food,Port Coquitlam,49.272795,-122.78989820000001,Subway,"{'brand:wikidata': 'Q244457', 'cuisine': 'sandwich', 'takeaway': 'yes', 'brand': 'Subway', 'brand:wikipedia': 'en:Subway (restaurant)'}",2020-04-18T03:29:42.000-07:00
"{'amenity': 'The Kebob House', 'house_number': '2865', 'road': 'Shaughnessy Street', 'city': 'Port Coquitlam', 'county': 'Metro Vancouver Regional District', 'state': 'British Columbia', 'postcode': 'V3C 3H1', 'country': 'Canada', 'country_code': 'ca'}",fast_food,Port Coquitlam,49.267067600000004,-122.7774757,The Kebob House,"{'addr:province': 'BC', 'addr:housenumber': '2865', 'drive_through': 'no', 'cuisine': 'kebab', 'addr:street': 'Shaughnessy Street', 'addr:postcode': 'V3C 3H1', 'addr:city': 'Port Coquitlam'}",2020-02-16T06:25:43.000-08:00
"{'amenity': 'Subway', 'road': 'Prairie Avenue', 'suburb': 'Birchland Manor', 'city': 'Port Coquitlam', 'county': 'Metro Vancouver Regional District', 'state': 'British Columbia', 'postcode': 'V3B 1S9', 'country': 'Canada', 'country_code': 'ca'}",fast_food,Port Coquitlam,49.2713215,-122.75513500000001,Subway,"{'cuisine': 'sandwich', 'takeaway': 'yes'}",2016-03-16T00:08:35.000-07:00
"{'amenity': ""McDonald's"", 'house_number': '2850', 'road': 'Shaughnessy Street', 'city': 'Port Coquitlam', 'county': 'Metro Vancouver Regional District', 'state': 'British Columbia', 'postcode': 'V3C 3H1', 'country': 'Canada', 'country_code': 'ca'}",fast_food,Port Coquitlam,49.2650869,-122.776261,McDonald's,"{'brand:wikidata': 'Q38076', 'addr:housenumber': '2850', 'brand:wikipedia': ""en:McDonald's"", 'cuisine': 'burger', 'addr:street': 'Shaughnessy Street', 'takeaway': 'yes', 'brand': ""McDonald's"", 'addr:unit': '2119', 'addr:city': 'Port Coquitlam'}",2019-09-13T13:57:05.000-07:00
"{'amenity': ""John's Chicken"", 'house_number': '1475', 'road': 'Prairie Avenue', 'suburb': 'Birchland Manor', 'city': 'Port Coquitlam', 'county': 'Metro Vancouver Regional District', 'state': 'British Columbia', 'postcode': 'V3B 3N3', 'country': 'Canada', 'country_code': 'ca'}",fast_food,Port Coquitlam,49.27185770000001,-122.7558811,John's Chicken,"{'cuisine': 'chicken', 'addr:housenumber': '1475', 'addr:street': 'Prairie Avenue', 'addr:city': 'Port Coquitlam'}",2019-09-13T13:56:58.000-07:00
"{'amenity': 'Little Caesars', 'road': 'Coast Meridian Road', 'suburb': 'Birchland Manor', 'city': 'Port Coquitlam', 'county': 'Metro Vancouver Regional District', 'state': 'British Columbia', 'postcode': 'V3B 3N3', 'country': 'Canada', 'country_code': 'ca'}",fast_food,Port Coquitlam,49.27180870000001,-122.75564640000002,Little Caesars,{'cuisine': 'pizza'},2016-03-16T00:15:32.000-07:00
"{'amenity': ""Pappa Leo's Pizza"", 'house_number': '3237', 'road': 'Coast Meridian Road', 'suburb': 'Birchland Manor', 'city': 'Port Coquitlam', 'county': 'Metro Vancouver Regional District', 'state': 'British Columbia', 'postcode': 'V3B 1T4', 'country': 'Canada', 'country_code': 'ca'}",fast_food,Port Coquitlam,49.271718799999995,-122.75712779999999,Pappa Leo's Pizza,"{'delivery': 'yes', 'addr:housenumber': '3237', 'cuisine': 'pizza', 'addr:street': 'Coast Meridian Road', 'addr:postcode': 'V3B 1T4', 'takeaway': 'yes', 'addr:city': 'Port Coquitlam'}",2019-09-13T13:56:58.000-07:00
"{'amenity': 'Pizza64', 'house_number': '2815', 'road': 'Shaughnessy Street', 'city': 'Port Coquitlam', 'county': 'Metro Vancouver Regional District', 'state': 'British Columbia', 'postcode': 'V3C 3H1', 'country': 'Canada', 'country_code': 'ca'}",fast_food,Port Coquitlam,49.266720899999996,-122.7778055,Pizza64,"{'addr:province': 'BC', 'addr:housenumber': '2815', 'opening_hours': 'Su-Th 11:00-22:00 Fr-Sa 11:00-23:00', 'cuisine': 'pizza', 'addr:street': 'Shaughnessy Street', 'addr:postcode': 'V3C 3H1', 'addr:city': 'Port Coquitlam'}",2020-02-03T07:12:20.000-08:00
"{'amenity': 'A&W', 'house_number': '859', 'road': 'Sherling Avenue', 'retail': 'Fremont Village', 'city': 'Port Coquitlam', 'county': 'Metro Vancouver Regional District', 'state': 'British Columbia', 'postcode': 'V3B 0G0', 'country': 'Canada', 'country_code': 'ca'}",fast_food,Port Coquitlam,49.253317100000004,-122.7374497,A&W,"{'brand:wikidata': 'Q2818848', 'addr:housenumber': '859', 'brand:wikipedia': 'en:A&W (Canada)', 'cuisine': 'burger', 'addr:street': 'Village Drive', 'takeaway': 'yes', 'brand': 'A&W', 'addr:city': 'Port Coquitlam'}",2019-09-23T20:16:20.000-07:00
"{'amenity': 'Burger King', 'house_number': '879', 'road': 'Sherling Avenue', 'retail': 'Fremont Village', 'city': 'Port Coquitlam', 'county': 'Metro Vancouver Regional District', 'state': 'British Columbia', 'postcode': 'V3B 0G0', 'country': 'Canada', 'country_code': 'ca'}",fast_food,Port Coquitlam,49.2533322,-122.7403668,Burger King,"{'brand:wikidata': 'Q177054', 'addr:housenumber': '879', 'brand:wikipedia': 'en:Burger King', 'cuisine': 'burger', 'addr:street': 'Village Drive', 'takeaway': 'yes', 'brand': 'Burger King', 'addr:city': 'Port Coquitlam'}",2019-09-13T13:57:05.000-07:00
"{'amenity': 'Popeyes', 'house_number': '2170', 'road': 'Hawkins Street', 'retail': 'Fremont Village', 'city': 'Port Coquitlam', 'county': 'Metro Vancouver Regional District', 'state': 'British Columbia', 'postcode': 'V3B 0G0', 'country': 'Canada', 'country_code': 'ca'}",fast_food,Port Coquitlam,49.2546597,-122.73790009999999,Popeyes,"{'brand:wikidata': 'Q1330910', 'official_name': 'Popeyes Louisiana Kitchen', 'addr:housenumber': '2170', 'brand:wikipedia': 'en:Popeyes', 'cuisine': 'chicken', 'addr:street': 'Hawkins Street', 'takeaway': 'yes', 'brand': 'Popeyes', 'addr:unit': '110', 'addr:city': 'Port Coquitlam'}",2019-09-13T13:57:05.000-07:00
"{'amenity': 'Subway', 'road': 'Hawkins Street', 'retail': 'Fremont Village', 'city': 'Port Coquitlam', 'county': 'Metro Vancouver Regional District', 'state': 'British Columbia', 'postcode': 'V3B 0G0', 'country': 'Canada', 'country_code': 'ca'}",fast_food,Port Coquitlam,49.2544914,-122.73816210000001,Subway,"{'brand:wikidata': 'Q244457', 'brand:wikipedia': 'en:Subway (restaurant)', 'cuisine': 'sandwich', 'name:en': 'Subway', 'takeaway': 'yes', 'brand': 'Subway'}",2019-09-10T18:06:48.000-07:00
"{'amenity': 'Five Guys', 'road': 'Sherling Avenue', 'retail': 'Fremont Village', 'city': 'Port Coquitlam', 'county': 'Metro Vancouver Regional District', 'state': 'British Columbia', 'postcode': 'V3B 0G0', 'country': 'Canada', 'country_code': 'ca'}",fast_food,Port Coquitlam,49.254136100000004,-122.7388679,Five Guys,"{'brand:wikidata': 'Q1131810', 'official_name': 'Five Guys Burgers and Fries', 'phone': '+1-604-472-9700', 'brand:wikipedia': 'en:Five Guys', 'cuisine': 'burger', 'name:en': 'Five Guys', 'takeaway': 'yes', 'brand': 'Five Guys'}",2019-09-10T18:06:48.000-07:00
"{'amenity': ""McDonald's"", 'road': 'Nicola Avenue', 'suburb': 'Birchland Manor', 'city': 'Port Coquitlam', 'county': 'Metro Vancouver Regional District', 'state': 'British Columbia', 'postcode': 'V3B 0G6', 'country': 'Canada', 'country_code': 'ca'}",fast_food,Port Coquitlam,49.2548653,-122.7354267,McDonald's,"{'brand:wikidata': 'Q38076', 'brand:wikipedia': ""en:McDonald's"", 'cuisine': 'burger', 'name:en': ""McDonald's"", 'takeaway': 'yes', 'brand': ""McDonald's""}",2019-09-23T20:16:20.000-07:00
"{'amenity': 'Mucho Burrito', 'road': 'Sherling Avenue', 'retail': 'Fremont Village', 'city': 'Port Coquitlam', 'county': 'Metro Vancouver Regional District', 'state': 'British Columbia', 'postcode': 'V3B 0G0', 'country': 'Canada', 'country_code': 'ca'}",fast_food,Port Coquitlam,49.2540332,-122.73886979999999,Mucho Burrito,"{'brand:wikidata': 'Q65148332', 'cuisine': 'mexican', 'name:en': 'Mucho Burrito', 'takeaway': 'yes', 'brand': 'Mucho Burrito'}",2019-09-10T18:06:48.000-07:00
"{'amenity': ""Wendy's"", 'house_number': '1320', 'road': 'Kingsway Avenue', 'city': 'Port Coquitlam', 'county': 'Metro Vancouver Regional District', 'state': 'British Columbia', 'postcode': 'V3C 6N6', 'country': 'Canada', 'country_code': 'ca'}",fast_food,Port Coquitlam,49.2469453,-122.74999879999999,Wendy's,"{'brand:wikidata': 'Q550258', 'addr:housenumber': '1320', 'brand:wikipedia': ""en:Wendy's"", 'drive_through': 'yes', 'opening_hours': 'Su-We 10:00-00:00; Th-Sa 10:00-01:00', 'cuisine': 'burger', 'addr:street': 'Kingsway Avenue', 'takeaway': 'yes', 'brand': ""Wendy's""}",2020-02-22T02:15:31.000-08:00
"{'amenity': ""Tim Hortons and Wendy's"", 'house_number': '1525', 'road': 'Lougheed Highway', 'suburb': 'Birchland Manor', 'city': 'Port Coquitlam', 'county': 'Metro Vancouver Regional District', 'state': 'British Columbia', 'postcode': 'V3B1A5', 'country': 'Canada', 'country_code': 'ca'}",fast_food,Port Coquitlam,49.2598943,-122.75702700000001,Wendy's,"{'opening_hours': 'Mo-Su 10:00-01:00', 'addr:housenumber': '1525', 'addr:street': 'Lougheed Highway', 'drive_through': 'yes'}",2019-10-02T16:02:12.000-07:00
"{'amenity': 'Dairy Queen', 'road': 'Prairie Avenue', 'suburb': 'Birchland Manor', 'city': 'Port Coquitlam', 'county': 'Metro Vancouver Regional District', 'state': 'British Columbia', 'postcode': 'V3B 3N3', 'country': 'Canada', 'country_code': 'ca'}",fast_food,Port Coquitlam,49.2713348,-122.75562409999999,Dairy Queen,{},2018-05-21T00:18:31.000-07:00
"{'amenity': ""Pajo's"", 'road': 'Poco Trail', 'suburb': 'Mary Hill', 'city': 'Port Coquitlam', 'county': 'Metro Vancouver Regional District', 'state': 'British Columbia', 'postcode': 'V3C 6K8', 'country': 'Canada', 'country_code': 'ca'}",fast_food,Port Coquitlam,49.2588554,-122.7905574,Pajo's,{'cuisine': 'fish_and_chips'},2012-05-07T06:30:17.000-07:00
"{'amenity': ""Earl's"", 'house_number': '2850', 'road': 'Shaughnessy Street', 'city': 'Port Coquitlam', 'county': 'Metro Vancouver Regional District', 'state': 'British Columbia', 'postcode': 'V3C 3H1', 'country': 'Canada', 'country_code': 'ca'}",restaurant,Port Coquitlam,49.2662294,-122.77697109999998,Earl's,"{'addr:housenumber': '2850', 'addr:street': 'Shaughnessy Street'}",2017-12-31T17:59:29.000-08:00
"{'amenity': 'San Remo Pizza', 'road': 'Coquitlam Avenue', 'city': 'Port Coquitlam', 'county': 'Metro Vancouver Regional District', 'state': 'British Columbia', 'postcode': 'V3C 6K5', 'country': 'Canada', 'country_code': 'ca'}",restaurant,Port Coquitlam,49.26760150000001,-122.7733233,San Remo Pizza,{},2010-09-02T06:28:52.000-07:00
"{'amenity': 'Yokozna Sushi', 'house_number': '1475', 'road': 'Prairie Avenue', 'suburb': 'Birchland Manor', 'city': 'Port Coquitlam', 'county': 'Metro Vancouver Regional District', 'state': 'British Columbia', 'postcode': 'V3B 1S9', 'country': 'Canada', 'country_code': 'ca'}",restaurant,Port Coquitlam,49.2715034,-122.75533519999999,Yokozna Sushi,"{'addr:housenumber': '1475', 'addr:street': 'Prairie Avenue', 'addr:unit': 'B109', 'operator': 'japanese', 'addr:city': 'Port Coquitlam'}",2019-09-13T13:56:49.000-07:00
"{'amenity': 'Sky Dragon', 'road': 'Prairie Avenue', 'suburb': 'Birchland Manor', 'city': 'Port Coquitlam', 'county': 'Metro Vancouver Regional District', 'state': 'British Columbia', 'postcode': 'V3B 3N3', 'country': 'Canada', 'country_code': 'ca'}",restaurant,Port Coquitlam,49.2708428,-122.75721940000001,Sky Dragon,{'cuisine': 'chinese'},2012-10-21T02:32:58.000-07:00
"{'amenity': 'Ball Breakers Billiards & Bistro', 'house_number': '3310', 'road': 'Coast Meridian Road', 'suburb': 'Birchland Manor', 'city': 'Port Coquitlam', 'county': 'Metro Vancouver Regional District', 'state': 'British Columbia', 'postcode': 'V3B 3N3', 'country': 'Canada', 'country_code': 'ca'}",restaurant,Port Coquitlam,49.272592700000004,-122.75564170000001,Ball Breakers Billiards & Bistro,"{'addr:housenumber': '3310', 'addr:street': 'Coast Meridian Road', 'addr:city': 'Port Coquitlam'}",2019-09-13T13:57:04.000-07:00
"{'amenity': 'Sushi Village', 'house_number': '3331', 'road': 'Coast Meridian Road', 'suburb': 'Lincoln Park', 'city': 'Port Coquitlam', 'county': 'Metro Vancouver Regional District', 'state': 'British Columbia', 'postcode': 'V3B 3N7', 'country': 'Canada', 'country_code': 'ca'}",restaurant,Port Coquitlam,49.272799799999994,-122.7566183,Sushi Village,"{'addr:housenumber': '3331', 'addr:street': 'Coast Meridian Road', 'addr:city': 'Port Coquitlam'}",2019-09-13T13:57:04.000-07:00
"{'amenity': 'Freshii', 'house_number': '2755', 'road': 'Lougheed Highway', 'city': 'Port Coquitlam', 'county': 'Metro Vancouver Regional District', 'state': 'British Columbia', 'postcode': 'V3B 1B5', 'country': 'Canada', 'country_code': 'ca'}",restaurant,Port Coquitlam,49.2734,-122.7884457,Freshii,"{'brand:wikidata': 'Q5503051', 'addr:housenumber': '2755', 'brand:wikipedia': 'en:Freshii', 'cuisine': 'salad', 'addr:street': 'Lougheed Highway', 'brand': 'Freshii', 'addr:unit': '31A', 'addr:city': 'Port Coquitlam'}",2019-09-13T13:57:05.000-07:00
"{'amenity': 'Eastern Pearl Seafood Restaurant', 'house_number': '2850', 'road': 'Shaughnessy Street', 'city': 'Port Coquitlam', 'county': 'Metro Vancouver Regional District', 'state': 'British Columbia', 'postcode': 'V3C 3H1', 'country': 'Canada', 'country_code': 'ca'}",restaurant,Port Coquitlam,49.2666807,-122.7766788,Eastern Pearl Seafood Restaurant,"{'cuisine': 'chinese', 'addr:housenumber': '2850', 'addr:street': 'Shaughnessy Street', 'addr:unit': '6102', 'addr:city': 'Port Coquitlam'}",2019-09-13T13:57:05.000-07:00
"{'amenity': 'Bombay', 'house_number': '2748', 'road': 'Lougheed Highway', 'city': 'Port Coquitlam', 'county': 'Metro Vancouver Regional District', 'state': 'British Columbia', 'postcode': 'V3B 1B5', 'country': 'Canada', 'country_code': 'ca'}",restaurant,Port Coquitlam,49.2720535,-122.78904890000001,Bombay,"{'cuisine': 'indian', 'addr:housenumber': '2748', 'website': 'https://www.thebombayrestaurant.ca/', 'addr:street': 'Lougheed Highway', 'phone': '+1-604-944-3872'}",2019-11-10T20:20:14.000-08:00
"{'amenity': 'Boston Pizza', 'house_number': '2325', 'road': 'Ottawa Street', 'suburb': 'Birchland Manor', 'city': 'Port Coquitlam', 'county': 'Metro Vancouver Regional District', 'state': 'British Columbia', 'postcode': 'V3B 8A4', 'country': 'Canada', 'country_code': 'ca'}",restaurant,Port Coquitlam,49.2563016,-122.7482111,Boston Pizza,"{'brand:wikidata': 'Q894578', 'addr:housenumber': '2325', 'brand:wikipedia': 'en:Boston Pizza', 'cuisine': 'pizza', 'addr:street': 'Ottawa Street', 'brand': 'Boston Pizza', 'addr:unit': '300', 'addr:city': 'Port Coquitlam'}",2019-09-13T13:57:05.000-07:00
"{'amenity': 'Pallas Athena Greek Kousina', 'house_number': '1250', 'road': 'Dominion Avenue', 'suburb': 'Birchland Manor', 'city': 'Port Coquitlam', 'county': 'Metro Vancouver Regional District', 'state': 'British Columbia', 'postcode': 'V3B8G7', 'country': 'Canada', 'country_code': 'ca'}",restaurant,Port Coquitlam,49.2582216,-122.74870990000002,Pallas Athena Greek Kousina,"{'cuisine': 'greek', 'addr:housenumber': '1250', 'addr:street': 'Dominion Avenue', 'addr:city': 'Port Coquitlam'}",2019-09-13T13:57:05.000-07:00
"{'amenity': 'Sushi Bar Shyun', 'house_number': '1250', 'road': 'Dominion Avenue', 'suburb': 'Birchland Manor', 'city': 'Port Coquitlam', 'county': 'Metro Vancouver Regional District', 'state': 'British Columbia', 'postcode': 'V3B8G7', 'country': 'Canada', 'country_code': 'ca'}",restaurant,Port Coquitlam,49.2581048,-122.74869199999999,Sushi Bar Shyun,"{'cuisine': 'sushi', 'addr:housenumber': '1250', 'addr:street': 'Dominion Avenue', 'addr:unit': '102', 'addr:city': 'Port Coquitlam'}",2019-09-13T13:57:05.000-07:00
"{'tourism': 'Poco Inn and Suites Hotel & Conference Centre', 'house_number': '1545', 'road': 'Lougheed Highway', 'suburb': 'Birchland Manor', 'city': 'Port Coquitlam', 'county': 'Metro Vancouver Regional District', 'state': 'British Columbia', 'postcode': 'V3B1A5', 'country': 'Canada', 'country_code': 'ca'}",restaurant,Port Coquitlam,49.2603054,-122.7577368,Izba Bistro,"{'addr:housenumber': '1545', 'addr:street': 'Lougheed Highway', 'addr:city': 'Port Coquitlam'}",2019-09-13T13:57:05.000-07:00
"{'amenity': 'Sushi 990', 'house_number': '1125', 'road': 'Nicola Avenue', 'suburb': 'Birchland Manor', 'city': 'Port Coquitlam', 'county': 'Metro Vancouver Regional District', 'state': 'British Columbia', 'postcode': 'V3B 7Z1', 'country': 'Canada', 'country_code': 'ca'}",restaurant,Port Coquitlam,49.2580227,-122.7455975,Sushi 990,"{'addr:housenumber': '1125', 'addr:street': 'Nicola Avenue', 'addr:unit': '110', 'addr:city': 'Port Coquitlam'}",2019-09-13T13:57:05.000-07:00
"{'amenity': 'Chopped Leaf', 'house_number': '873', 'road': 'Sherling Avenue', 'retail': 'Fremont Village', 'city': 'Port Coquitlam', 'county': 'Metro Vancouver Regional District', 'state': 'British Columbia', 'postcode': 'V3B 0G9', 'country': 'Canada', 'country_code': 'ca'}",restaurant,Port Coquitlam,49.2534148,-122.7397591,Chopped Leaf,"{'addr:province': 'BC', 'addr:housenumber': '873', 'addr:country': 'CA', 'addr:street': 'Village Drive', 'addr:postcode': 'V3B 0G9', 'addr:city': 'Port Coquitlam'}",2020-04-17T18:21:07.000-07:00
"{'amenity': 'Hearthstone Pizza', 'house_number': '2755', 'road': 'Lougheed Highway', 'city': 'Port Coquitlam', 'county': 'Metro Vancouver Regional District', 'state': 'British Columbia', 'postcode': 'V3B 5Y9', 'country': 'Canada', 'country_code': 'ca'}",restaurant,Port Coquitlam,49.2737945,-122.7881632,Hearthstone Pizza,"{'addr:province': 'BC', 'addr:housenumber': '2755', 'phone': '604-944-2221', 'opening_hours': 'Su-Sa 11:00-21:00', 'cuisine': 'pizza;artisan', 'addr:street': 'Lougheed Highway', 'addr:postcode': 'V3B 5Y9', 'addr:unit': '25', 'addr:city': 'Port Coquitlam'}",2020-02-12T01:45:41.000-08:00
"{'amenity': 'Freshii', 'house_number': '2325', 'road': 'Ottawa Street', 'suburb': 'Birchland Manor', 'city': 'Port Coquitlam', 'county': 'Metro Vancouver Regional District', 'state': 'British Columbia', 'postcode': 'V3B 8A4', 'country': 'Canada', 'country_code': 'ca'}",restaurant,Port Coquitlam,49.2566232,-122.74713009999999,Freshii,"{'brand:wikidata': 'Q5503051', 'addr:housenumber': '2325', 'website': 'https://www.starbucks.com/', 'brand:wikipedia': 'en:Freshii', 'cuisine': 'salad', 'addr:street': 'Ottawa Street', 'brand': 'Freshii', 'addr:unit': '100', 'addr:city': 'Port Coquitlam'}",2019-09-24T15:52:27.000-07:00
"{'amenity': 'White Spot', 'road': 'Lougheed Highway', 'city': 'Port Coquitlam', 'county': 'Metro Vancouver Regional District', 'state': 'British Columbia', 'postcode': 'V3B 7Z1', 'country': 'Canada', 'country_code': 'ca'}",restaurant,Port Coquitlam,49.255495,-122.74668090000002,White Spot,"{'brand:wikidata': 'Q7995414', 'cuisine': 'burger', 'brand': 'White Spot', 'brand:wikipedia': 'en:White Spot'}",2019-09-10T18:06:48.000-07:00
"{'office': ""Harvey's"", 'road': 'Sherling Avenue', 'retail': 'Fremont Village', 'city': 'Port Coquitlam', 'county': 'Metro Vancouver Regional District', 'state': 'British Columbia', 'postcode': 'V3B 0G0', 'country': 'Canada', 'country_code': 'ca'}",restaurant,Port Coquitlam,49.2539596,-122.7388737,Swiss Chalet,"{'brand:wikidata': 'Q2372909', 'cuisine': 'chicken', 'name:en': 'Swiss Chalet', 'brand': 'Swiss Chalet', 'brand:wikipedia': 'en:Swiss Chalet'}",2019-09-10T18:06:48.000-07:00
"{'amenity': 'Orrange Kitchen + Bar', 'house_number': '1125', 'road': 'Nicola Avenue', 'suburb': 'Birchland Manor', 'city': 'Port Coquitlam', 'county': 'Metro Vancouver Regional District', 'state': 'British Columbia', 'postcode': 'V3B 7Z1', 'country': 'Canada', 'country_code': 'ca'}",restaurant,Port Coquitlam,49.257832799999996,-122.74548200000001,Orrange Kitchen + Bar,"{'addr:housenumber': '1125', 'addr:street': 'Nicola Avenue', 'addr:unit': '111', 'addr:city': 'Port Coquitlam'}",2020-04-17T00:54:38.000-07:00
"{'amenity': 'Pho 51', 'house_number': '2160', 'road': 'Hawkins Street', 'retail': 'Fremont Village', 'city': 'Port Coquitlam', 'county': 'Metro Vancouver Regional District', 'state': 'British Columbia', 'postcode': 'V3B 0G0', 'country': 'Canada', 'country_code': 'ca'}",restaurant,Port Coquitlam,49.254477,-122.73790490000002,Pho 51,"{'addr:province': 'BC', 'addr:housenumber': '2160', 'phone': '+1-604-944-8880', 'cuisine': 'vietnamese', 'name:en': 'Pho 51', 'addr:street': 'Hawkins Street', 'addr:postcode': 'V3B 0G0', 'addr:city': 'Port Coquitlam'}",2020-04-05T23:19:55.000-07:00
"{'amenity': 'Pho Toan Thang', 'road': 'Dominion Avenue', 'suburb': 'Birchland Manor', 'city': 'Port Coquitlam', 'county': 'Metro Vancouver Regional District', 'state': 'British Columbia', 'postcode': 'V3B 0N4', 'country': 'Canada', 'country_code': 'ca'}",restaurant,Port Coquitlam,49.2580763,-122.74587859999998,Pho Toan Thang,"{'cuisine': 'vietnamese', 'name:en': 'Pho Toan Thang'}",2016-11-21T22:26:12.000-08:00
"{'amenity': 'Iron Bowl Japanese', 'road': 'Mary Hill Bypass', 'suburb': 'Mary Hill', 'city': 'Port Coquitlam', 'county': 'Metro Vancouver Regional District', 'state': 'British Columbia', 'postcode': 'V3C 2A0', 'country': 'Canada', 'country_code': 'ca'}",restaurant,Port Coquitlam,49.2420515,-122.760669,Iron Bowl Japanese,{'cuisine': 'japanese'},2017-09-21T05:14:41.000-07:00
"{'amenity': 'Poco Sushi', 'house_number': '2325', 'road': 'Ottawa Street', 'suburb': 'Birchland Manor', 'city': 'Port Coquitlam', 'county': 'Metro Vancouver Regional District', 'state': 'British Columbia', 'postcode': 'V3B 8A4', 'country': 'Canada', 'country_code': 'ca'}",restaurant,Port Coquitlam,49.2565154,-122.7481768,Poco Sushi,"{'addr:housenumber': '2325', 'internet_access': 'wlan', 'cuisine': 'sushi', 'addr:street': 'Ottawa Street', 'addr:unit': '400', 'addr:city': 'Port Coquitlam'}",2019-09-13T13:56:59.000-07:00
"{'amenity': 'De Dutch', 'road': 'Lougheed Highway', 'city': 'Port Coquitlam', 'county': 'Metro Vancouver Regional District', 'state': 'British Columbia', 'postcode': 'V3B 1B5', 'country': 'Canada', 'country_code': 'ca'}",restaurant,Port Coquitlam,49.272341299999994,-122.78906699999999,De Dutch,"{'cuisine': 'breakfast;german', 'name:en': 'De Dutch', 'internet_access': 'wlan'}",2016-08-27T11:45:18.000-07:00
"{'amenity': 'Pho Noodle House', 'road': 'Prairie Avenue', 'suburb': 'Birchland Manor', 'city': 'Port Coquitlam', 'county': 'Metro Vancouver Regional District', 'state': 'British Columbia', 'postcode': 'V3B 1S9', 'country': 'Canada', 'country_code': 'ca'}",restaurant,Port Coquitlam,49.2707223,-122.75519879999999,Pho Noodle House,{},2018-05-21T00:18:31.000-07:00
"{'house_number': '2850', 'road': 'Lougheed Highway', 'city': 'Port Coquitlam', 'county': 'Metro Vancouver Regional District', 'state': 'British Columbia', 'postcode': 'V3B 1E4', 'country': 'Canada', 'country_code': 'ca'}",restaurant,Port Coquitlam,49.264273700000004,-122.7665374,Rainbow Butterfly,{'cuisine': 'chinese'},2013-04-30T02:32:38.000-07:00
