address,amenity,city,lat,lon,name,tags,timestamp
"{'shop': 'Walmart Supercenter', 'road': 'Fisherman Way', 'city': 'Tsawwassen First Nation', 'county': 'Metro Vancouver Regional District', 'state': 'British Columbia', 'postcode': 'V4M 4G8', 'country': 'Canada', 'country_code': 'ca'}",charging_station,Tsawwassen First Nation,49.0425154,-123.0815866,,{'capacity': '10'},2020-04-28T00:08:50.000-07:00
"{'shop': 'N&N Hair Salon', 'road': 'Salish Sea Drive', 'city': 'Tsawwassen First Nation', 'county': 'Metro Vancouver Regional District', 'state': 'British Columbia', 'postcode': 'V4M 4G8', 'country': 'Canada', 'country_code': 'ca'}",charging_station,Tsawwassen First Nation,49.0409547,-123.08942179999998,,"{'authentication:nfc': 'yes', 'operator': 'ChargePoint', 'capacity': '2'}",2020-04-29T17:50:07.000-07:00
"{'amenity': 'ChargePoint', 'road': 'Salish Sea Drive', 'city': 'Tsawwassen First Nation', 'county': 'Metro Vancouver Regional District', 'state': 'British Columbia', 'postcode': 'V4M 4G8', 'country': 'Canada', 'country_code': 'ca'}",charging_station,Tsawwassen First Nation,49.042122799999994,-123.0892713,,"{'brand:wikidata': 'Q5176149', 'socket:type1': '4', 'brand:wikipedia': 'en:ChargePoint', 'brand': 'ChargePoint', 'operator': 'ChargePoint', 'capacity': '4'}",2020-04-28T00:08:50.000-07:00
"{'amenity': 'ChargePoint', 'road': 'Fisherman Way', 'city': 'Tsawwassen First Nation', 'county': 'Metro Vancouver Regional District', 'state': 'British Columbia', 'postcode': 'V4M 4G8', 'country': 'Canada', 'country_code': 'ca'}",charging_station,Tsawwassen First Nation,49.0422714,-123.0838957,,"{'brand:wikidata': 'Q5176149', 'socket:type1': '4', 'brand:wikipedia': 'en:ChargePoint', 'brand': 'ChargePoint', 'operator': 'ChargePoint', 'capacity': '6'}",2020-04-28T00:08:50.000-07:00
"{'amenity': 'ChargePoint', 'road': 'Fisherman Way', 'city': 'Tsawwassen First Nation', 'county': 'Metro Vancouver Regional District', 'state': 'British Columbia', 'postcode': 'V4M 4G8', 'country': 'Canada', 'country_code': 'ca'}",charging_station,Tsawwassen First Nation,49.0421427,-123.086359,,"{'brand:wikidata': 'Q5176149', 'socket:type1': '4', 'brand:wikipedia': 'en:ChargePoint', 'brand': 'ChargePoint', 'operator': 'ChargePoint', 'capacity': '10'}",2020-04-28T00:08:50.000-07:00
"{'amenity': ""Menchie's"", 'house_number': '4949', 'road': 'Canoe Pass Way', 'retail': 'Tsawwassen Commons', 'city': 'Tsawwassen First Nation', 'county': 'Metro Vancouver Regional District', 'state': 'British Columbia', 'postcode': 'V4M 4G8', 'country': 'Canada', 'country_code': 'ca'}",ice_cream,Tsawwassen First Nation,49.0410151,-123.0874949,Menchie's,"{'brand:wikidata': 'Q6816528', 'addr:housenumber': '4949', 'brand:wikipedia': ""en:Menchie's Frozen Yogurt"", 'cuisine': 'frozen_yogurt', 'addr:street': 'Canoe Pass Way', 'brand': ""Menchie's"", 'addr:unit': '1504'}",2019-07-29T04:44:35.000-07:00
"{'highway': 'Tsawwassen Dr (NB) at 1900 Block', 'road': 'Tsawwassen Drive', 'city': 'Tsawwassen First Nation', 'county': 'Metro Vancouver Regional District', 'state': 'British Columbia', 'postcode': 'V4M 4G2', 'country': 'Canada', 'country_code': 'ca'}",place_of_worship,Tsawwassen First Nation,49.040082899999994,-123.0976937,,{'religion': 'christian'},2019-08-15T05:39:14.000-07:00
"{'amenity': 'CEFA', 'road': 'Canoe Pass Way', 'retail': 'Tsawwassen Commons', 'city': 'Tsawwassen First Nation', 'county': 'Metro Vancouver Regional District', 'state': 'British Columbia', 'postcode': 'V4M 4G8', 'country': 'Canada', 'country_code': 'ca'}",childcare,Tsawwassen First Nation,49.0399664,-123.08944009999999,CEFA,{},2020-04-18T23:45:02.000-07:00
"{'amenity': 'Tsawwassen First Nation Administration Offices', 'house_number': '1926', 'road': 'Tsawwassen Drive', 'city': 'Tsawwassen First Nation', 'county': 'Metro Vancouver Regional District', 'state': 'British Columbia', 'postcode': 'V4M 4G2', 'country': 'Canada', 'country_code': 'ca'}",townhall,Tsawwassen First Nation,49.0380546,-123.0978325,Tsawwassen First Nation Administration Offices,"{'addr:housenumber': '1926', 'website': 'http://tsawwassenfirstnation.com', 'addr:street': 'Tsawwassen Drive North'}",2019-01-14T06:22:28.000-08:00
"{'amenity': 'Shell', 'house_number': '4890', 'road': 'Canoe Pass Way', 'retail': 'Tsawwassen Commons', 'city': 'Tsawwassen First Nation', 'county': 'Metro Vancouver Regional District', 'state': 'British Columbia', 'postcode': 'V4M 4G8', 'country': 'Canada', 'country_code': 'ca'}",fuel,Tsawwassen First Nation,49.038835399999996,-123.08982069999999,Shell,"{'brand:wikidata': 'Q154950', 'addr:housenumber': '4890', 'brand:wikipedia': 'en:Royal Dutch Shell', 'addr:street': 'Canoe Pass Way', 'brand': 'Shell', 'addr:unit': '600'}",2019-04-27T08:37:44.000-07:00
"{'amenity': 'Petro Canada', 'house_number': '1406', 'road': 'Tsawwassen Drive', 'city': 'Tsawwassen First Nation', 'county': 'Metro Vancouver Regional District', 'state': 'British Columbia', 'postcode': 'V4M 4G2', 'country': 'Canada', 'country_code': 'ca'}",fuel,Tsawwassen First Nation,49.0283218,-123.09698,Petro Canada,"{'addr:housenumber': '1406', 'fuel': 'gas;diesel', 'description': 'Source: http://tsawwassenfirstnation.com', 'addr:street': 'Tsawwassen Drive', 'brand': 'Petro Canada', 'opening_date': '2019-01-17'}",2019-01-14T06:27:29.000-08:00
"{'shop': 'N&N Hair Salon', 'road': 'Salish Sea Drive', 'city': 'Tsawwassen First Nation', 'county': 'Metro Vancouver Regional District', 'state': 'British Columbia', 'postcode': 'V4M 4G8', 'country': 'Canada', 'country_code': 'ca'}",post_box,Tsawwassen First Nation,49.040794899999995,-123.0896576,,{'operator': 'Canada Post'},2020-04-29T17:50:07.000-07:00
"{'shop': 'HomeSense', 'road': 'Fisherman Way', 'city': 'Tsawwassen First Nation', 'county': 'Metro Vancouver Regional District', 'state': 'British Columbia', 'postcode': 'V4M 4G8', 'country': 'Canada', 'country_code': 'ca'}",post_box,Tsawwassen First Nation,49.0424151,-123.08621129999999,,{},2020-04-18T23:45:02.000-07:00
"{'amenity': 'Drs. Mottahed Sahota & Yee', 'road': 'Canoe Pass Way', 'retail': 'Tsawwassen Commons', 'city': 'Tsawwassen First Nation', 'county': 'Metro Vancouver Regional District', 'state': 'British Columbia', 'postcode': 'V4M 4G8', 'country': 'Canada', 'country_code': 'ca'}",dentist,Tsawwassen First Nation,49.0405959,-123.08974979999999,Drs. Mottahed Sahota & Yee,"{'addr:unit': '2206', 'healthcare': 'dentist'}",2020-04-18T23:45:02.000-07:00
"{'road': 'Brunswick Point Trail', 'city': 'Tsawwassen First Nation', 'county': 'Metro Vancouver Regional District', 'state': 'British Columbia', 'postcode': 'V4K 3N2', 'country': 'Canada', 'country_code': 'ca'}",waste_basket,Tsawwassen First Nation,49.069424,-123.1456118,,{},2016-05-22T02:45:11.000-07:00
"{'amenity': 'Starbucks', 'house_number': '4949', 'road': 'Canoe Pass Way', 'retail': 'Tsawwassen Commons', 'city': 'Tsawwassen First Nation', 'county': 'Metro Vancouver Regional District', 'state': 'British Columbia', 'postcode': 'V4M 4G8', 'country': 'Canada', 'country_code': 'ca'}",cafe,Tsawwassen First Nation,49.0414779,-123.0868778,Starbucks,"{'brand:wikidata': 'Q37158', 'official_name': 'Starbucks Coffee', 'addr:housenumber': '4949', 'brand:wikipedia': 'en:Starbucks', 'cuisine': 'coffee_shop', 'addr:street': 'Canoe Pass Way', 'takeaway': 'yes', 'brand': 'Starbucks', 'addr:unit': '1302'}",2019-07-29T04:44:35.000-07:00
"{'amenity': 'Tim Hortons', 'house_number': '4949', 'road': 'Canoe Pass Way', 'retail': 'Tsawwassen Commons', 'city': 'Tsawwassen First Nation', 'county': 'Metro Vancouver Regional District', 'state': 'British Columbia', 'postcode': 'V4M 4G8', 'country': 'Canada', 'country_code': 'ca'}",cafe,Tsawwassen First Nation,49.040487899999995,-123.0897972,Tim Hortons,"{'brand:wikidata': 'Q175106', 'addr:housenumber': '4949', 'brand:wikipedia': 'en:Tim Hortons', 'cuisine': 'coffee_shop', 'addr:street': 'Canoe Pass Way', 'takeaway': 'yes', 'brand': 'Tim Hortons', 'addr:unit': '2202'}",2020-04-18T23:45:02.000-07:00
"{'amenity': 'Mucho Burrito', 'road': 'Canoe Pass Way', 'retail': 'Tsawwassen Commons', 'city': 'Tsawwassen First Nation', 'county': 'Metro Vancouver Regional District', 'state': 'British Columbia', 'postcode': 'V4M 4G8', 'country': 'Canada', 'country_code': 'ca'}",fast_food,Tsawwassen First Nation,49.0417051,-123.0830195,Mucho Burrito,"{'brand:wikidata': 'Q65148332', 'cuisine': 'mexican', 'takeaway': 'yes', 'brand': 'Mucho Burrito', 'addr:unit': '502'}",2020-04-18T23:45:02.000-07:00
"{'amenity': 'Subway', 'house_number': '4949', 'road': 'Canoe Pass Way', 'retail': 'Tsawwassen Commons', 'city': 'Tsawwassen First Nation', 'county': 'Metro Vancouver Regional District', 'state': 'British Columbia', 'postcode': 'V4M 4G8', 'country': 'Canada', 'country_code': 'ca'}",fast_food,Tsawwassen First Nation,49.0406229,-123.0871553,Subway,"{'brand:wikidata': 'Q244457', 'addr:housenumber': '4949', 'brand:wikipedia': 'en:Subway (restaurant)', 'cuisine': 'sandwich', 'addr:street': 'Canoe Pass Way', 'takeaway': 'yes', 'brand': 'Subway', 'addr:unit': '1612'}",2019-07-29T04:44:35.000-07:00
"{'amenity': 'A&W', 'house_number': '4949', 'road': 'Canoe Pass Way', 'retail': 'Tsawwassen Commons', 'city': 'Tsawwassen First Nation', 'county': 'Metro Vancouver Regional District', 'state': 'British Columbia', 'postcode': 'V4M 4G8', 'country': 'Canada', 'country_code': 'ca'}",fast_food,Tsawwassen First Nation,49.0418988,-123.0829669,A&W,"{'brand:wikidata': 'Q2818848', 'addr:housenumber': '4949', 'brand:wikipedia': 'en:A&W (Canada)', 'cuisine': 'burger', 'addr:street': 'Canoe Pass Way', 'takeaway': 'yes', 'brand': 'A&W', 'addr:unit': '402'}",2020-04-18T23:45:02.000-07:00
"{'amenity': ""Wendy's"", 'house_number': '4949', 'road': 'Canoe Pass Way', 'retail': 'Tsawwassen Commons', 'city': 'Tsawwassen First Nation', 'county': 'Metro Vancouver Regional District', 'state': 'British Columbia', 'postcode': 'V4M 4G8', 'country': 'Canada', 'country_code': 'ca'}",fast_food,Tsawwassen First Nation,49.040446700000004,-123.08787659999999,Wendy's,"{'brand:wikidata': 'Q550258', 'addr:housenumber': '4949', 'brand:wikipedia': ""en:Wendy's"", 'drive_through': 'yes', 'cuisine': 'burger', 'addr:street': 'Canoe Pass Way', 'takeaway': 'yes', 'brand': ""Wendy's"", 'addr:unit': '1704'}",2019-10-02T16:01:49.000-07:00
"{'amenity': ""Arby's"", 'house_number': '4890', 'road': 'Canoe Pass Way', 'retail': 'Tsawwassen Commons', 'city': 'Tsawwassen First Nation', 'county': 'Metro Vancouver Regional District', 'state': 'British Columbia', 'postcode': 'V4M 4G8', 'country': 'Canada', 'country_code': 'ca'}",fast_food,Tsawwassen First Nation,49.0399045,-123.08886229999999,Arby's,"{'brand:wikidata': 'Q630866', 'addr:housenumber': '4890', 'brand:wikipedia': ""en:Arby's"", 'cuisine': 'sandwich', 'addr:street': 'Canoe Pass Way', 'takeaway': 'yes', 'brand': ""Arby's"", 'addr:unit': '402'}",2020-04-18T23:45:02.000-07:00
"{'amenity': 'De Dutch', 'road': 'Canoe Pass Way', 'retail': 'Tsawwassen Commons', 'city': 'Tsawwassen First Nation', 'county': 'Metro Vancouver Regional District', 'state': 'British Columbia', 'postcode': 'V4M 4G8', 'country': 'Canada', 'country_code': 'ca'}",restaurant,Tsawwassen First Nation,49.0416362,-123.0830145,De Dutch,"{'cuisine': 'pancake;breakfast', 'addr:unit': '504'}",2020-04-18T23:45:02.000-07:00
"{'amenity': 'Simply Pho', 'road': 'Canoe Pass Way', 'retail': 'Tsawwassen Commons', 'city': 'Tsawwassen First Nation', 'county': 'Metro Vancouver Regional District', 'state': 'British Columbia', 'postcode': 'V4M 4G8', 'country': 'Canada', 'country_code': 'ca'}",restaurant,Tsawwassen First Nation,49.0407321,-123.08722399999999,Simply Pho,{'addr:unit': '1608'},2020-04-18T23:45:02.000-07:00
"{'shop': 'N&N Hair Salon', 'road': 'Salish Sea Drive', 'city': 'Tsawwassen First Nation', 'county': 'Metro Vancouver Regional District', 'state': 'British Columbia', 'postcode': 'V4M 4G8', 'country': 'Canada', 'country_code': 'ca'}",restaurant,Tsawwassen First Nation,49.040982,-123.0897646,,{'cuisine': 'japanese'},2020-04-18T23:45:02.000-07:00
"{'amenity': ""Nando's"", 'house_number': '4949', 'road': 'Canoe Pass Way', 'retail': 'Tsawwassen Commons', 'city': 'Tsawwassen First Nation', 'county': 'Metro Vancouver Regional District', 'state': 'British Columbia', 'postcode': 'V4M 4G8', 'country': 'Canada', 'country_code': 'ca'}",restaurant,Tsawwassen First Nation,49.0419035,-123.0853223,Nando's,"{'brand:wikidata': 'Q3472954', 'addr:housenumber': '4949', 'brand:wikipedia': ""en:Nando's"", 'cuisine': 'chicken;portuguese', 'addr:street': 'Canoe Pass Way', 'brand': ""Nando's"", 'addr:unit': '902'}",2019-07-29T04:44:35.000-07:00
"{'amenity': 'Two Stones Grill', 'house_number': '4949', 'road': 'Canoe Pass Way', 'retail': 'Tsawwassen Commons', 'city': 'Tsawwassen First Nation', 'county': 'Metro Vancouver Regional District', 'state': 'British Columbia', 'postcode': 'V4M 4G8', 'country': 'Canada', 'country_code': 'ca'}",restaurant,Tsawwassen First Nation,49.04081970000001,-123.0873284,Two Stones Grill,"{'addr:housenumber': '4949', 'addr:street': 'Canoe Pass Way', 'addr:unit': '1602'}",2019-04-27T08:37:44.000-07:00
"{'amenity': 'SMK Smokery + Bar', 'house_number': '4949 #1502', 'road': 'Canoe Pass Way', 'retail': 'Tsawwassen Commons', 'city': 'Tsawwassen First Nation', 'county': 'Metro Vancouver Regional District', 'state': 'British Columbia', 'postcode': 'V4M 4G8', 'country': 'Canada', 'country_code': 'ca'}",restaurant,Tsawwassen First Nation,49.0409767,-123.0876795,SMK Smokery + Bar,"{'addr:housenumber': '4949 #1502', 'website': 'https://www.smkrestaurants.ca/', 'phone': '+1-604-382-5066', 'opening_hours': 'Su-Th 11:00-22:00; Fr-Sa 11:00-00:00', 'addr:street': 'Canoe Pass Way', 'addr:postcode': 'V4M 4G8'}",2019-07-17T21:24:14.000-07:00
